,Unnamed: 0,name,city,country,iata_code,latitude,longitude,links_count
0,0,Hartsfield Jackson Atlanta Intl,Atlanta,Estados Unidos,ATL,33.636719,-84.428067,1826
1,1,Chicago Ohare Intl,Chicago,Estados Unidos,ORD,41.978603,-87.904842,1108
2,2,Capital Intl,Pequim,China,PEK,40.080111,116.584556,1069
3,3,Heathrow,Londres,Reino Unido,LHR,51.4775,-0.461389,1051
4,4,Charles De Gaulle,Paris,França,CDG,49.012779,2.55,1041
5,5,Los Angeles Intl,Los Angeles,Estados Unidos,LAX,33.942536,-118.408075,990
6,6,Frankfurt Main,Francoforte,Alemanha,FRA,50.026421,8.543125,990
7,7,Dallas Fort Worth Intl,Dallas-Fort Worth,Estados Unidos,DFW,32.896828,-97.037997,936
8,8,John F Kennedy Intl,Nova Iorque,Estados Unidos,JFK,40.639751,-73.778925,911
9,9,Schiphol,Amsterdã,Holanda,AMS,52.308613,4.763889,903
10,10,Pudong,Xangai,China,PVG,31.143378,121.805214,825
11,11,Changi Intl,Cingapura,Cingapura,SIN,1.350189,103.994433,820
12,12,Barcelona,Barcelona,Espanha,BCN,41.297078,2.078464,783
13,13,Incheon Intl,Seul,Coreia do Sul,ICN,37.469075,126.450517,740
14,14,Denver Intl,Denver,Estados Unidos,DEN,39.861656,-104.673178,735
15,15,Miami Intl,Miami,Estados Unidos,MIA,25.79325,-80.290556,734
16,16,Franz Josef Strauss,Munique,Alemanha,MUC,48.353783,11.786086,728
17,17,Ataturk,Istambul,Peru,IST,40.976922,28.814606,719
18,18,Hong Kong Intl,Hong Kong,Hong Kong,HKG,22.308919,113.914603,710
19,19,Dubai Intl,Dubai,Emirados Árabes Unidos,DXB,25.252778,55.364444,710
20,20,Gatwick,Londres,Reino Unido,LGW,51.148056,-0.190278,708
21,21,Baiyun Intl,Cantão,China,CAN,23.392436,113.298786,674
22,22,Fiumicino,Roma,Itália,FCO,41.804475,12.250797,662
23,23,Barajas,Madri,Espanha,MAD,40.493556,-3.566764,661
24,24,Suvarnabhumi Intl,Bangkok,Tailândia,BKK,13.681108,100.747283,656
25,25,Domododevo,Moscou,Rússia,DME,55.408611,37.906111,649
26,26,Shuangliu,Chengdu,China,CTU,30.578528,103.947086,647
27,27,Lester B Pearson Intl,Toronto,Canadá,YYZ,43.677223,-79.630556,636
28,28,Brussels Natl,Bruxelas,Bélgica,BRU,50.901389,4.484444,631
29,29,Manchester,Manchester,Reino Unido,MAN,53.353744,-2.27495,627
30,30,Schwechat,Viena,Áustria,VIE,48.110278,16.569722,616
31,31,Charlotte Douglas Intl,Charlotte,Estados Unidos,CLT,35.214,-80.943139,600
32,32,Philadelphia Intl,Filadélfia,Estados Unidos,PHL,39.871944,-75.241139,576
33,33,Narita Intl,Tóquio,Japão,NRT,35.764722,140.386389,575
34,34,Dusseldorf,Düsseldorf,Alemanha,DUS,51.289453,6.766775,570
35,35,Xianyang,Xian,China,XIY,34.447119,108.751592,563
36,36,Son Sant Joan,Palma de Maiorca,Espanha,PMI,39.55361,2.727778,548
37,37,Wujiaba,Kunming,China,KMG,24.992364,102.743536,545
38,38,Jiangbei,Chongqing,China,CKG,29.719217,106.641678,540
39,39,Indira Gandhi Intl,Délhi,Índia,DEL,28.5665,77.103088,527
40,40,Taoyuan Intl,Taipei,Taiwan,TPE,25.077731,121.232822,527
41,41,Kuala Lumpur Intl,Kuala Lumpur,Malásia,KUL,2.745578,101.709917,514
42,42,Phoenix Sky Harbor Intl,Fénix,Estados Unidos,PHX,33.434278,-112.011583,508
43,43,Xiaoshan,Hangzhou,China,HGH,30.229503,120.434453,506
44,44,Newark Liberty Intl,Newark,Estados Unidos,EWR,40.6925,-74.168667,505
45,45,San Francisco Intl,São Francisco,Estados Unidos,SFO,37.618972,-122.374889,499
46,46,Mc Carran Intl,Las Vegas,Estados Unidos,LAS,36.080056,-115.15225,498
47,47,Zurich,Zurique,Suíça,ZRH,47.464722,8.549167,494
48,48,George Bush Intercontinental,Houston,Estados Unidos,IAH,29.984433,-95.341442,485
49,49,Licenciado Benito Juarez Intl,Cidade do México,México,MEX,19.436303,-99.072097,485
50,50,Abu Dhabi Intl,Abu Dabi,Emirados Árabes Unidos,AUH,24.432972,54.651138,477
51,51,Orlando Intl,Orlando,Estados Unidos,MCO,28.429394,-81.308994,475
52,52,Baoan Intl,Shenzhen,China,SZX,22.639258,113.810664,467
53,53,Gaoqi,Xiamen,China,XMN,24.544036,118.127739,466
54,54,Kastrup,Copenhague,Dinamarca,CPH,55.617917,12.655972,457
55,55,Chhatrapati Shivaji Intl,Bombaim,Índia,BOM,19.088686,72.867919,452
56,56,Arlanda,Estocolmo,Suécia,ARN,59.651944,17.918611,439
57,57,Lisboa,Lisboa,Portugal,LIS,38.781311,-9.135919,435
58,58,Detroit Metro Wayne Co,Detroit,Estados Unidos,DTW,42.212444,-83.353389,433
59,59,Minneapolis St Paul Intl,Mineápolis,Estados Unidos,MSP,44.881956,-93.221767,430
60,60,General Edward Lawrence Logan Intl,Boston,Estados Unidos,BOS,42.364347,-71.005181,424
61,61,Tegel,Berlim,Alemanha,TXL,52.559686,13.287711,418
62,62,Dublin,Dublin,Irlanda,DUB,53.421333,-6.270075,414
63,63,Hongqiao Intl,Xangai,China,SHA,31.197875,121.336319,411
64,64,Sydney Intl,Sidney,Austrália,SYD,-33.946111,151.177222,410
65,65,Malaga,málaga,Espanha,AGP,36.6749,-4.499106,410
66,66,Orly,Paris,França,ORY,48.725278,2.359444,404
67,67,Eleftherios Venizelos Intl,Atenas,Grécia,ATH,37.936358,23.944467,403
68,68,Seattle Tacoma Intl,Seattle,Estados Unidos,SEA,47.449,-122.309306,403
69,69,Sheremetyevo,Moscou,Rússia,SVO,55.972642,37.414589,397
70,70,Ronald Reagan Washington Natl,Washington,Estados Unidos,DCA,38.852083,-77.037722,388
71,71,Guarulhos Gov Andre Franco Montouro,São Paulo,Brasil,GRU,-23.432075,-46.469511,387
72,72,Washington Dulles Intl,Washington,Estados Unidos,IAD,38.944533,-77.455811,386
73,73,Ninoy Aquino Intl,Manila,Filipinas,MNL,14.508647,121.019581,386
74,74,Malpensa,Milão,Itália,MXP,45.630606,8.728111,386
75,75,Huanghua,Changcha,China,CSX,28.189158,113.219633,377
76,76,Doha Intl,Doha,Catar,DOH,25.261125,51.565056,377
77,77,King Abdulaziz Intl,Jidá,Arábia Saudita,JED,21.679564,39.156536,377
78,78,Liuting,Qingdao,China,TAO,36.266108,120.374436,376
79,79,Fort Lauderdale Hollywood Intl,Fort Lauderdale,Estados Unidos,FLL,26.072583,-80.15275,374
80,80,Tianhe,Wuhan,China,WUH,30.783758,114.2081,374
81,81,Pierre Elliott Trudeau Intl,Montréal,Canadá,YUL,45.470556,-73.740833,371
82,82,Pulkovo,São Petersburgo,Rússia,LED,59.800292,30.262503,368
83,83,Soekarno Hatta Intl,Jacarta,Indonésia,CGK,-6.125567,106.655897,367
84,84,Gardermoen,Oslo,Noruega,OSL,60.193917,11.100361,363
85,85,Ruzyne,Praga,República Checa,PRG,50.100833,14.26,361
86,86,Xinzheng,Zhengzhou,China,CGO,34.519672,113.840889,348
87,87,Stansted,Londres,Reino Unido,STN,51.885,0.235,343
88,88,Lukou,Nanquim,China,NKG,31.742042,118.862025,330
89,89,Geneve Cointrin,Genebra,Suíça,GVA,46.238064,6.10895,329
90,90,Johannesburg Intl,Joanesburgo,África do Sul,JNB,-26.139166,28.246,321
91,91,Hamburg,Hamburgo,Alemanha,HAM,53.630389,9.988228,321
92,92,Helsinki Vantaa,Helsínquia,Finlândia,HEL,60.317222,24.963333,320
93,93,Tenerife Sur,Tenerife,Espanha,TFS,28.044475,-16.572489,318
94,94,La Guardia,Nova Iorque,Estados Unidos,LGA,40.777245,-73.872608,316
95,95,Tokyo Intl,Tóquio,Japão,HND,35.552258,139.779694,315
96,96,Vancouver Intl,Vancouver,Canadá,YVR,49.193889,-123.184444,315
97,97,Alicante,Alicante,Espanha,ALC,38.282169,-0.558156,314
98,98,Cancun Intl,Cancun,México,CUN,21.036528,-86.877083,311
99,99,Gran Canaria,Grã-Canária,Espanha,LPA,27.931886,-15.386586,308
100,100,Eldorado Intl,Bogotá,Colômbia,BOG,4.701594,-74.146947,307
101,101,Diwopu,Urumqi,China,URC,43.907106,87.474244,306
102,102,Kansai,Osaca,Japão,KIX,34.4347222,135.244167,304
103,103,Cairo Intl,Cairo,Egito,CAI,30.121944,31.405556,303
104,104,Brisbane Intl,Brisbane,Austrália,BNE,-27.384167,153.1175,296
105,105,Binhai,Tianjin,China,TSN,39.124353,117.346183,294
106,106,Sabiha Gokcen,Istambul,Peru,SAW,40.898553,29.309219,290
107,107,Baltimore Washington Intl,Baltimore,Estados Unidos,BWI,39.175361,-76.668333,286
108,108,Zhoushuizi,Dalian,China,DLC,38.965667,121.5386,285
109,109,Salt Lake City Intl,Cidade do Lago Salgado,Estados Unidos,SLC,40.788389,-111.977772,278
110,110,Tampa Intl,Tampa,Estados Unidos,TPA,27.975472,-82.53325,276
111,111,King Khaled Intl,Riad,Arábia Saudita,RUH,24.95764,46.698776,276
112,112,Saint Exupery,Lyon,França,LYS,45.726387,5.090833,275
113,113,Longdongbao,Guiyang,China,KWE,26.538522,106.800703,274
114,114,Stuttgart,Estugarda,Alemanha,STR,48.689878,9.221964,273
115,115,Shenyang Taoxian International Airport,Shenyang,China,SHE,41.3824,123.2901,272
116,116,Chicago Midway Intl,Chicago,Estados Unidos,MDW,41.785972,-87.752417,271
117,117,Ben Gurion,Tel Aviv,Israel,TLV,32.011389,34.886667,271
118,118,Jinan,Jinan,China,TNA,36.857214,117.215992,270
119,119,Melbourne Intl,Melbourne,Austrália,MEL,-37.673333,144.843333,269
120,120,Cote D\\'Azur,Legal,França,NCE,43.658411,7.215872,269
121,121,Changle,Fuzhou,China,FOC,25.935064,119.663272,266
122,122,Koln Bonn,Colônia,Alemanha,CGN,50.865917,7.142744,265
123,123,Provence,Marselha,França,MRS,43.435555,5.213611,265
124,124,Birmingham,Birmingham,Reino Unido,BHX,52.453856,-1.748028,264
125,125,Taiping,Harbin,China,HRB,45.623403,126.250328,259
126,126,Jomo Kenyatta International,Nairóbi,Quênia,NBO,-1.319167,36.9275,258
127,127,Antalya,Antália,Peru,AYT,36.898731,30.800461,253
128,128,Mohammed V Intl,Casablanca,Marrocos,CMN,33.367467,-7.589967,250
129,129,Louis Armstrong New Orleans Intl,Nova Orleans,Estados Unidos,MSY,29.993389,-90.258028,248
130,130,Venezia Tessera,Veneza,Itália,VCE,45.505278,12.351944,245
131,131,Okecie,Varsóvia,Polônia,WAW,52.16575,20.967122,240
132,132,Kuwait Intl,Kuwait,Kuwait,KWI,29.226567,47.968928,239
133,133,San Diego Intl,São Diego,Estados Unidos,SAN,32.733556,-117.189667,238
134,134,Edinburgh,Edimburgo,Reino Unido,EDI,55.95,-3.3725,237
135,135,Honolulu Intl,Honolulu,Estados Unidos,HNL,21.318681,-157.922428,233
136,136,Catania Fontanarossa,Catânia,Itália,CTA,37.466781,15.0664,233
137,137,Lanzarote,Las Palmas,Espanha,ACE,28.945464,-13.605225,233
138,138,Portland Intl,Portland,Estados Unidos,PDX,45.588722,-122.5975,230
139,139,Jorge Chavez Intl,Lima,Peru,LIM,-12.021889,-77.114319,230
140,140,Wuxu,Nanning,China,NNG,22.608267,108.172442,228
141,141,Calgary Intl,Calgary,Canadá,YYC,51.113888,-114.020278,228
142,142,Henri Coanda,Bucareste,Romênia,OTP,44.572161,26.102178,227
143,143,Luqa,Malta,Malta,MLA,35.857497,14.4775,226
144,144,Queen Alia Intl,Amã,Jordânia,AMM,31.722556,35.993214,223
145,145,Lambert St Louis Intl,São Luís,Estados Unidos,STL,38.748697,-90.370028,221
146,146,Wusu,Taiyuan,China,TYN,37.746897,112.628428,220
147,147,Nikos Kazantzakis,Iráclio,Grécia,HER,35.339719,25.180297,219
148,148,Phoenix International,Sanya,China,SYX,18.302897,109.412272,218
149,149,Tansonnhat Intl,Cidade de Ho Chi Minh,Vietnã,SGN,10.818797,106.651856,218
150,150,Meilan,Haikou,China,HAK,19.934856,110.458961,215
151,151,Luton,Londres,Reino Unido,LTN,51.874722,-0.3683329999999999,214
152,152,Liangjiang,Guilin,China,KWL,25.218106,110.039197,214
153,153,Bole Intl,Adis Abeba,Etiópia,ADD,8.977889,38.799319,214
154,154,Auckland Intl,Auckland,Nova Zelândia,AKL,-37.008056,174.791667,213
155,155,Tocumen Intl,cidade do Panamá,Panamá,PTY,9.071364,-79.383453,212
156,156,Chennai Intl,Madras,Índia,MAA,12.994414,80.180517,211
157,157,Faro,Faro,Portugal,FAO,37.014425,-7.965911,211
158,158,Seeb Intl,Mascate,Omã,MCT,23.593278,58.284444,208
159,159,Luis Munoz Marin Intl,São João,Porto Rico,SJU,18.439417,-66.001833,204
160,160,Bandaranaike Intl Colombo,Colombo,Sri Lanka,CMB,7.180756,79.884117,203
161,161,Riga Intl,Riga,Letônia,RIX,56.923611,23.971111,202
162,162,Boryspil Intl,Kiev,Ucrânia,KBP,50.345,30.894722,202
163,163,Porto,Porto,Portugal,OPO,41.248055,-8.681389,202
164,164,Ibiza,Ibiza,Espanha,IBZ,38.872858,1.373117,202
165,165,Bali Ngurah Rai,Dempassar,Indonésia,DPS,-8.748169,115.167172,201
166,166,Bristol,Bristol,Reino Unido,BRS,51.382669,-2.719089,200
167,167,Koltsovo,Ecaterimburgo,Rússia,SVX,56.743108,60.802728,199
168,168,Presidente Juscelino Kubitschek,Brasília,Brasil,BSB,-15.8711,-47.918625,197
169,169,Glasgow,Glasgow,Reino Unido,GLA,55.871944,-4.433056,196
170,170,Bangalore,Bangalore,Índia,BLR,12.949986,77.668206,195
171,171,Sharjah Intl,Xarja,Emirados Árabes Unidos,SHJ,25.328575,55.51715,195
172,172,Ferihegy,Budapeste,Hungria,BUD,47.436933,19.255592,195
173,173,Netaji Subhash Chandra Bose Intl,Calcutá,Índia,CCU,22.654739,88.446722,194
174,174,Galeao Antonio Carlos Jobim,Rio de Janeiro,Brasil,GIG,-22.808903,-43.243647,194
175,175,Nottingham East Midlands,East Midlands,Reino Unido,EMA,52.831111,-1.328056,192
176,176,Fuerteventura,Fuerteventura,Espanha,FUE,28.452717,-13.863761,192
177,177,Larnaca,Lárnaca,Chipre,LCA,34.875117,33.62485,190
178,178,EuroAirport Basel-Mulhouse-Freiburg,Basileia,Suíça,BSL,47.59,7.529167,189
179,179,Don Miguel Hidalgo Y Costilla Intl,Guadalajara,México,GDL,20.5218,-103.311167,185
180,180,Nantes Atlantique,Nantes,França,NTE,47.153189,-1.610725,183
181,181,Perth Intl,Perth,Austrália,PER,-31.940278,115.966944,182
182,182,Simon Bolivar Intl,Caracas,Venezuela,CCS,10.603117,-66.990583,181
183,183,Tolmachevo,Novosibirsk,Rússia,OVB,55.012622,82.650656,177
184,184,Houari Boumediene,Argel,Argélia,ALG,36.691014,3.215408,176
185,185,Bologna,Bolonha,Itália,BLQ,44.535444,11.288667,176
186,186,Carthage,Tunes,Tunísia,TUN,36.851033,10.227217,175
187,187,Baita Airport,Hohhot,China,HET,40.851422,111.824103,174
188,188,Noibai Intl,Hanói,Vietnã,HAN,21.221192,105.807178,174
189,189,Makedonia,Salónica,Grécia,SKG,40.519725,22.97095,174
190,190,Changbei Intl,Nanchang,China,KHN,28.865,115.9,172
191,191,Vnukovo,Moscou,Rússia,VKO,55.591531,37.261486,171
192,192,Beograd,Belgrado,Sérvia,BEG,44.818444,20.309139,171
193,193,Fukuoka,Fukuoka,Japão,FUK,33.585942,130.450686,170
194,194,Bahrain Intl,Bahrein,Bahrein,BAH,26.270834,50.63361,170
195,195,Chubu Centrair Intl,Nagoya,Japão,NGO,34.858414,136.805408,169
196,196,Lanzhou Airport,Lanzhou,China,LHW,36.117,103.617,168
197,197,Lishe,Ninbo,China,NGB,29.826683,121.461906,168
198,198,Brussels South,Charleroi,Bélgica,CRL,50.459197,4.453817,168
199,199,Rhodes Diagoras,Rodes,Grécia,RHO,36.405419,28.086192,168
200,200,Austin Bergstrom Intl,Austin,Estados Unidos,AUS,30.194528,-97.669889,167
201,201,Raleigh Durham Intl,Raleigh-durham,Estados Unidos,RDU,35.877639,-78.787472,167
202,202,Newcastle,Newcastle,Reino Unido,NCL,55.0375,-1.6916669999999998,165
203,203,Schonefeld,Berlim,Alemanha,SXF,52.380001,13.5225,165
204,204,Shijiazhuang Daguocun International Airport,Shijiazhuang,China,SJW,38.280686,114.6973,164
205,205,Nashville Intl,Nashville,Estados Unidos,BNA,36.124472,-86.678194,164
206,206,King Fahd Intl,Droga,Arábia Saudita,DMM,26.471161,49.79789,164
207,207,Valencia,Valência,Espanha,VLC,39.489314,-0.4816249999999999,163
208,208,Wenzhou Yongqiang Airport,Wenzhou,China,WNZ,27.9122,120.852,162
209,209,New Chitose,Sapporo,Japão,CTS,42.7752,141.692283,162
210,210,Bergamo Orio Al Serio,Bérgamo,Itália,BGY,45.673889,9.704166,162
211,211,Cleveland Hopkins Intl,Cleveland,Estados Unidos,CLE,41.411689,-81.849794,161
212,212,Blagnac,Toulouse,França,TLS,43.629075,1.363819,161
213,213,Beijing Nanyuan Airport,Pequim,China,NAY,39.7825,116.387778,160
214,214,Leeds Bradford,Leeds,Reino Unido,LBA,53.865897,-1.660569,160
215,215,Yuzhny,Tashkent,Uzbequistão,TAS,41.257861,69.281186,160
216,216,Gimhae Intl,Busan,Coreia do Sul,PUS,35.179528,128.938222,160
217,217,Kansas City Intl,Cidade de Kansas,Estados Unidos,MCI,39.297606,-94.713905,159
218,218,Macau Intl,Macau,Macau,MFM,22.149556,113.591558,158
219,219,Arturo Merino Benitez Intl,Santiago,Chile,SCL,-33.392975,-70.785803,158
220,220,Capodichino,Nápoles,Itália,NAP,40.886033,14.290781,158
221,221,Luogang,Hefei,China,HFE,31.780019,117.298436,154
222,222,Hannover,Hanôver,Alemanha,HAJ,52.461056,9.685078,152
223,223,Pisa,Pisa,Itália,PSA,43.683917,10.39275,152
224,224,Cincinnati Northern Kentucky Intl,Cincinnati,Estados Unidos,CVG,39.048836,-84.667822,150
225,225,Ministro Pistarini,Buenos Aires,Argentina,EZE,-34.822222,-58.535833,149
226,226,William P Hobby,Houston,Estados Unidos,HOU,29.645419,-95.278889,149
227,227,Juan Santamaria Intl,São José,Costa Rica,SJO,9.993861,-84.208806,149
228,228,Pittsburgh Intl,Pitsburgo,Estados Unidos,PIT,40.491467,-80.232872,148
229,229,Zia Intl,Daca,Bangladesh,DAC,23.843333,90.397781,148
230,230,Hyderabad,Hyderabad,Índia,HYD,17.453117,78.467586,147
231,231,General Mariano Escobedo Intl,Monterrei,México,MTY,25.778489,-100.106878,145
232,232,Menara,Marraquexe,Marrocos,RAK,31.606886,-8.0363,145
233,233,Punta Cana Intl,Punta Cana,República Dominicana,PUJ,18.567367,-68.363431,143
234,234,Luxembourg,Luxemburgo,Luxemburgo,LUX,49.626575,6.211517,140
235,235,Edmonton Intl,Edmonton,Canadá,YEG,53.309723,-113.579722,139
236,236,Indianapolis Intl,Indianápolis,Estados Unidos,IND,39.717331,-86.294383,138
237,237,Phuket Intl,Phuket,Tailândia,HKT,8.1132,98.316872,138
238,238,Flesland,Bergen,Noruega,BGO,60.293386,5.218142,137
239,239,San Antonio Intl,Santo António,Estados Unidos,SAT,29.533694,-98.469778,136
240,240,Eindhoven,Eindhoven,Holanda,EIN,51.450139,5.374528,135
241,241,Lynden Pindling Intl,Nassau,Bahamas,NAS,25.038958,-77.466231,135
242,242,Don Muang Intl,Bangkok,Tailândia,DMK,13.912583,100.60675,134
243,243,Almaty,Alma-ata,Cazaquistão,ALA,43.352072,77.040508,134
244,244,Merignac,Bordéus,França,BOD,44.828335,-0.715556,134
245,245,Leopold Sedar Senghor Intl,Dacar,Senegal,DKR,14.739708,-17.490225,134
246,246,Rafic Hariri Intl,Beirute,Líbano,BEY,33.820931,35.488389,133
247,247,Adnan Menderes,Esmirna,Peru,ADB,38.292392,27.156953,133
248,248,Sofia,Sofia,Bulgária,SOF,42.695194,23.406167,132
249,249,Changchun,Changchun,China,CGQ,43.5412,125.1201,131
250,250,Yinchuan,Yinchuan,China,INC,38.481944,106.009167,131
251,251,Juanda,Surabaia,Indonésia,SUB,-7.379831,112.786858,131
252,252,Lijiang Airport,Lijiang,China,LJG,26.883333,100.23333,129
253,253,Kaohsiung Intl,Kaohsiung,Taiwan,KHH,22.577094,120.350006,129
254,254,City,Londres,Reino Unido,LCY,51.505278,0.055278,128
255,255,Mashhad,Mashad,Irã,MHD,36.234,59.643,128
256,256,Southwest Florida Intl,Fort Myers,Estados Unidos,RSW,26.536167,-81.755167,128
257,257,Port Columbus Intl,Colombo,Estados Unidos,CMH,39.997972,-82.891889,128
258,258,Heydar Aliyev,Bacu,Azerbaijão,GYD,40.4675,50.046667,128
259,259,Aeroparque Jorge Newbery,Buenos Aires,Argentina,AEP,-34.559175,-58.415606,128
260,260,Bilbao,Bilbau,Espanha,BIO,43.301097,-2.910608,128
261,261,Sevilla,Sevilha,Espanha,SVQ,37.418,-5.893106,127
262,262,Palermo,Palermo,Itália,PMO,38.175958,13.091019,126
263,263,General Mitchell Intl,Milwaukee,Estados Unidos,MKE,42.947222,-87.896583,125
264,264,Jinnah Intl,Carachi,Paquistão,KHI,24.906547,67.160797,125
265,265,Mehrabad Intl,Teerã,Irã,THR,35.689167,51.313416,125
266,266,Naha,Okinawa,Japão,OKA,26.195814,127.645869,123
267,267,Imam Khomeini,Teerã,Irã,IKA,35.416111,51.152222,122
268,268,Dubrovnik,Dubrovnik,Croácia,DBV,42.561353,18.268244,121
269,269,Norman Y Mineta San Jose Intl,São José,Estados Unidos,SJC,37.3626,-121.929022,120
270,270,Linate,Milão,Itália,LIN,45.445103,9.276739,120
271,271,Tille,Beauvais,França,BVA,49.454444,2.112778,120
272,272,Zhuhai Airport,Zhuhai,China,ZUH,22.0064,113.376,119
273,273,Murtala Muhammed,Lagos,Nigéria,LOS,6.577369,3.321156,119
274,274,Ted Stevens Anchorage Intl,Ancoragem,Estados Unidos,ANC,61.174361,-149.996361,118
275,275,Cochin,Cochim,Índia,COK,10.155556,76.391389,118
276,276,Jeju Intl,Cheju,Coreia do Sul,CJU,33.511306,126.493028,118
277,277,Chaklala,Islamabade,Paquistão,ISB,33.616653,73.099233,117
278,278,Liverpool,Liverpool,Reino Unido,LPL,53.333611,-2.849722,116
279,279,Vilnius Intl,Vilnius,Lituânia,VNO,54.634133,25.285767,116
280,280,Deputado Luis Eduardo Magalhaes,salvador,Brasil,SSA,-12.910994,-38.331044,116
281,281,Dalaman,Dalaman,Peru,DLM,36.713056,28.7925,116
282,282,Balice,Cracóvia,Polônia,KRK,50.077731,19.784836,114
283,283,Princess Juliana Intl,Philipsburg,Antilhas Holandesas,SXM,18.040953,-63.1089,114
284,284,Viracopos,Campinas,Brasil,VCP,-23.0075,-47.134444,114
285,285,Memphis Intl,Mênfis,Estados Unidos,MEM,35.042417,-89.976667,112
286,286,Laishan,Yantai,China,YNT,37.401667,121.371667,112
287,287,Hasanuddin,Ujung Pandang,Indonésia,UPG,-5.061631,119.554042,112
288,288,Metropolitan Oakland Intl,Oakland,Estados Unidos,OAK,37.721278,-122.220722,111
289,289,Allama Iqbal Intl,Lahore,Paquistão,LHE,31.521564,74.403594,111
290,290,Cairns Intl,Cairns,Austrália,CNS,-16.885833,145.755278,110
291,291,Tancredo Neves Intl,Belo Horizonte,Brasil,CNF,-19.63375,-43.968856,110
292,292,Sacramento Intl,Sacramento,Estados Unidos,SMF,38.695417,-121.590778,108
293,293,Minsk 2,Minsk 2,Bielorrússia,MSQ,53.882469,28.030731,108
294,294,Kotoka Intl,Acra,Gana,ACC,5.605186,-0.166786,107
295,295,Landvetter,Gotemburgo,Suécia,GOT,57.662836,12.279819,106
296,296,Sola,Stavanger,Noruega,SVG,58.876778,5.637856,106
297,297,Dushanbe,Duchambé,Tadjiquistão,DYU,38.543333,68.825,106
298,298,Firenze,Florença,Itália,FLR,43.809953,11.2051,106
299,299,El Salvador Intl,são Salvador,El Salvador,SAL,13.440947,-89.055728,105
300,300,Esenboga,Ancara,Peru,ESB,40.128082,32.995083,105
301,301,Madeira,Funchal,Portugal,FNC,32.697889,-16.774453,104
302,302,Kota Kinabalu Intl,Kota Kinabalu,Malásia,BKI,5.937208,116.051181,104
303,303,Astana Intl,Tselinogrado,Cazaquistão,TSE,51.022222,71.466944,104
304,304,Olbia Costa Smeralda,Ólbia,Itália,OLB,40.898661,9.517628,104
305,305,Bradley Intl,Fechaduras Windsor,Estados Unidos,BDL,41.938889,-72.683222,103
306,306,Ioannis Kapodistrias Intl,Kerkyra/Corfu,Grécia,CFU,39.601944,19.911667,103
307,307,Port Moresby Jacksons Intl,Porto Moresby,Papua Nova Guiné,POM,-9.443383,147.22005,102
308,308,Adelaide Intl,Adelaide,Austrália,ADL,-34.945,138.530556,102
309,309,Abidjan Felix Houphouet Boigny Intl,Abidjan,Costa do Marfim,ABJ,5.261386,-3.926294,102
310,310,Lech Walesa,Gdańsk,Polônia,GDN,54.377569,18.466222,101
311,311,Los Cabos Intl,São José Del Cabo,México,SJD,23.15185,-109.721044,101
312,312,Neuenland,Brema,Alemanha,BRE,53.0475,8.786667,100
313,313,Ciampino,Roma,Itália,CIA,41.799361,12.594936,100
314,314,Bari,Bari,Itália,BRI,41.138856,16.760594,100
315,315,Xining Caojiabu Airport,Xining,China,XNN,36.5275,102.043,99
316,316,Yangon Intl,Rangum,Birmânia,RGN,16.907305,96.133222,99
317,317,Douala,Douala,Camarões,DLA,4.006081,9.719481,98
318,318,Prince Mohammad Bin Abdulaziz,Medina,Arábia Saudita,MED,24.553422,39.705061,98
319,319,Girona,Girona,Espanha,GRO,41.900969,2.760547,98
320,320,Mactan Cebu Intl,Cebu,Filipinas,CEB,10.307542,123.979439,97
321,321,Orlando Sanford Intl,Sanford,Estados Unidos,SFB,28.777639,-81.237489,97
322,322,Split,Dividir,Croácia,SPU,43.538944,16.297964,97
323,323,Halifax Intl,Halifax,Canadá,YHZ,44.880833,-63.50861,95
324,324,Chiang Mai Intl,Chiang Mai,Tailândia,CNX,18.766847,98.962644,95
325,325,Nurnberg,Nuremberga,Alemanha,NUE,49.4987,11.066897,95
326,326,Tripoli Intl,Trípoli,Líbia,TIP,32.663544,13.159011,95
327,327,Wuxi Airport,Wuxi,China,WUX,31.4944,120.429,94
328,328,Billund,Billund,Dinamarca,BLL,55.740322,9.151778,94
329,329,Frankfurt Hahn,Hahn,Alemanha,HHN,49.948672,7.263892,94
330,330,Congonhas,São Paulo,Brasil,CGH,-23.626692,-46.655375,94
331,331,Las Americas Intl,Santo Domingo,República Dominicana,SDQ,18.429664,-69.668925,93
332,332,Luanda 4 De Fevereiro,Luanda,Angola,LAD,-8.858375,13.231178,92
333,333,Dubai Al Maktoum,Dubai,Emirados Árabes Unidos,DWC,24.55056,55.103174,92
334,334,Emelyanovo,Krasnoiarsk,Rússia,KJA,56.18,92.475,92
335,335,Licenciado Gustavo Diaz Ordaz Intl,Puerto Vallarta,México,PVR,20.680083,-105.254167,92
336,336,Jacksonville Intl,Jacksonville,Estados Unidos,JAX,30.494056,-81.687861,91
337,337,Pashkovskiy,Krasnodar,Rússia,KRR,45.034689,39.170539,91
338,338,Keflavik International Airport,Keflavík,Islândia,KEF,63.985,-22.605556,91
339,339,Enfidha - Zine El Abidine Ben Ali International Airport,Enfidha,Tunísia,NBE,36.075833,10.438611,90
340,340,Darwin Intl,Darwin,Austrália,DRW,-12.4083333,130.87266,90
341,341,Zvartnots,Erevan,Armênia,EVN,40.147275,44.395881,90
342,342,Manas,Bisqueque,Quirguistão,FRU,43.061306,74.477556,90
343,343,Reina Beatrix Intl,Oranjestad,Aruba,AUA,12.501389,-70.015221,90
344,344,Souda,Chania,Grécia,CHQ,35.531747,24.149678,90
345,345,Kos,Cós,Grécia,KGS,36.793335,27.091667,90
346,346,Sangster Intl,Baía de Montego,Jamaica,MBJ,18.503717,-77.913358,89
347,347,Ottawa Macdonald Cartier Intl,Otava,Canadá,YOW,45.3225,-75.669167,89
348,348,Quanzhou Airport,Quanzhou,China,JJN,24.7964,118.59,88
349,349,Palm Beach Intl,Praia de Palm Ocidental,Estados Unidos,PBI,26.683161,-80.095589,88
350,350,Tribhuvan Intl,Catmandu,Nepal,KTM,27.696583,85.3591,88
351,351,Jose Marti Intl,Havana,Cuba,HAV,22.989153,-82.409086,87
352,352,Cape Town Intl,cidade do Cabo,África do Sul,CPT,-33.964806,18.601667,86
353,353,Vaernes,Trondheim,Noruega,TRD,63.457556,10.92425,86
354,354,John Wayne Arpt Orange Co,Santa ana,Estados Unidos,SNA,33.675667,-117.868222,86
355,355,Salgado Filho,Porto Alegre,Brasil,POA,-29.994428,-51.171428,86
356,356,Afonso Pena,Curitiba,Brasil,CWB,-25.528475,-49.175775,86
357,357,Torino,Turim,Itália,TRN,45.200761,7.649631,86
358,358,Elmas,Cagliari,Itália,CAG,39.251469,9.054283,86
359,359,Male Intl,Macho,Maldivas,MLE,4.191833,73.529128,85
360,360,Zagreb,Zagrebe,Croácia,ZAG,45.742931,16.068778,85
361,361,Pafos Intl,Pafos,Chipre,PFO,34.718039,32.485731,85
362,362,Kahului,Kahului,Estados Unidos,OGG,20.89865,-156.430458,84
363,363,Penang Intl,Penang,Malásia,PEN,5.297139,100.276864,84
364,364,Thiruvananthapuram Intl,Trivandrum,Índia,TRV,8.482122,76.920114,84
365,365,Osaka Intl,Osaca,Japão,ITM,34.785528,135.438222,84
366,366,Albuquerque International Sunport,Albuquerque,Estados Unidos,ABQ,35.0402222,-106.6091944,83
367,367,Louisville International Airport,Louisville,Estados Unidos,SDF,38.1740858,-85.7364989,83
368,368,Nadi Intl,Nandi,Fiji,NAN,-17.755392,177.443378,83
369,369,General Abelardo L Rodriguez Intl,Tijuana,México,TIJ,32.541064,-116.970158,83
370,370,Sir Seewoosagur Ramgoolam Intl,Plaisance,Maurício,MRU,-20.430235,57.6836,82
371,371,Dyce,Aberdeen,Reino Unido,ABZ,57.201944,-2.197778,82
372,372,Irkutsk,Irkutsk,Rússia,IKT,52.268028,104.388975,82
373,373,Will Rogers World,Cidade de Oklahoma,Estados Unidos,OKC,35.393089,-97.600733,81
374,374,Borg El Arab Intl,Alexandria,Egito,HBE,30.917669,29.696408,81
375,375,Siem Reap,Siem Reap,Camboja,REP,13.410666,103.81284,81
376,376,Winnipeg Intl,Winnipeg,Canadá,YWG,49.910036,-97.239886,81
377,377,Khartoum,Cartum,Sudão,KRT,15.589497,32.553161,81
378,378,Cadjehoun,Cotonu,Benim,COO,6.357228,2.384353,80
379,379,Sungshan,Taipei,Taiwan,TSA,25.069722,121.5525,80
380,380,Lesquin,Lille,França,LIL,50.561942,3.089444,80
381,381,Leipzig Halle,Lípsia,Alemanha,LEJ,51.432447,12.241633,79
382,382,Hurghada Intl,Hurgada,Egito,HRG,27.178317,33.799436,79
383,383,Mariscal Sucre Intl,Quito,Equador,UIO,-0.141144,-78.488214,78
384,384,Gimpo,Seul,Coreia do Sul,GMP,37.558311,126.790586,78
385,385,Shiraz Shahid Dastghaib Intl,Xiraz,Irã,SYZ,29.539242,52.589786,78
386,386,Campo Dell Oro,Ajácio,França,AJA,41.923637,8.802917,78
387,387,Kigali Intl,Quigali,Ruanda,KGL,-1.968628,30.13945,78
388,388,Faa\\'a International,Papete,Polinésia Francesa,PPT,-17.556667,-149.611389,77
389,389,Sharm El Sheikh Intl,Sharm el-Sheikh,Egito,SSH,27.977222,34.394722,77
390,390,La Aurora,cidade de Guatemala,Guatemala,GUA,14.583272,-90.527475,77
391,391,Villafranca,Villafranca,Itália,VRN,45.395706,10.888533,77
392,392,Jersey,Jersey,Jersey,JER,49.207947,-2.195508,76
393,393,Niederrhein,Weeze,Alemanha,NRN,51.602222,6.141944,76
394,394,Tallinn,Tallinn-ulemista Internacional,Estônia,TLL,59.413317,24.832844,76
395,395,Richmond Intl,Richmond,Estados Unidos,RIC,37.505167,-77.319667,76
396,396,Yakutsk,Iakutsk,Rússia,YKS,62.09325,129.770672,76
397,397,Treviso,Treviso,Itália,TSF,45.6484,12.194422,76
398,398,Sanaa Intl,Sana,Iémen,SAH,15.476258,44.219739,75
399,399,Dallas Love Fld,Dallas,Estados Unidos,DAL,32.847111,-96.851778,75
400,400,Novy,Khabarovsk,Rússia,KHV,48.528044,135.188361,75
401,401,Torp,Sandefjord,Noruega,TRF,59.186703,10.258628,74
402,402,Moss,Rygge,Noruega,RYG,59.378933,10.785389,74
403,403,Changzhou,Changzhou,China,CZX,31.941667,119.711667,74
404,404,Norfolk Intl,Norfolk,Estados Unidos,ORF,36.894611,-76.201222,74
405,405,Zarzis,Djerba,Tunísia,DJE,33.875031,10.775461,73
406,406,Sepinggan,Balikpapan,Indonésia,BPN,-1.268272,116.894478,72
407,407,Guararapes Gilberto Freyre Intl,Recife,Brasil,REC,-8.126794,-34.923039,72
408,408,Christchurch Intl,Christchurch,Nova Zelândia,CHC,-43.489358,172.532225,72
409,409,Poretta,Bastia,França,BIA,42.552664,9.483731,72
410,410,Tirana Rinas,Tirana,Albânia,TIA,41.414742,19.720561,72
411,411,Wai Sha Airport,Shantou,China,SWA,23.4,116.683,71
412,412,Buffalo Niagara Intl,Búfalo,Estados Unidos,BUF,42.940525,-78.732167,71
413,413,Birmingham Intl,Birmingham,Estados Unidos,BHM,33.562942,-86.75355,71
414,414,Jose Joaquin De Olmedo Intl,Guaiaquil,Equador,GYE,-2.157419,-79.883558,71
415,415,Pinto Martins Intl,Fortaleza,Brasil,FOR,-3.776283,-38.532556,71
416,416,Belfast Intl,Belfast,Reino Unido,BFS,54.6575,-6.215833,70
417,417,Ahmedabad,Ahmedabad,Índia,AMD,23.077242,72.63465,70
418,418,Piarco,Porto da Espanha,Trinidad e Tobago,POS,10.595369,-61.337242,70
419,419,Val De Cans Intl,Belém,Brasil,BEL,-1.37925,-48.476292,70
420,420,Guam Intl,Agana,Guam,GUM,13.48345,144.795983,70
421,421,Santiago,Santiago,Espanha,SCQ,42.896333,-8.415144,70
422,422,Menorca,Menorca,Espanha,MAH,39.862597,4.218647,70
423,423,Tbilisi,Tbilissi,Geórgia,TBS,41.669167,44.954722,69
424,424,Charleston Afb Intl,charleston,Estados Unidos,CHS,32.898647,-80.040528,69
425,425,Eppley Afld,Omaha,Estados Unidos,OMA,41.303167,-95.894069,69
426,426,V C Bird Intl,Antígua,Antígua e Barbuda,ANU,17.136749,-61.792667,69
427,427,Salzburg,Salzburgo,Áustria,SZG,47.793304,13.004333,69
428,428,Entzheim,Estrasburgo,França,SXB,48.538319,7.628233,69
429,429,Cork,Cortiça,Irlanda,ORK,51.841269,-8.491111,68
430,430,Myrtle Beach Intl,Praia da Murta,Estados Unidos,MYR,33.67975,-78.928333,68
431,431,Pune,Puna,Índia,PNQ,18.582111,73.919697,68
432,432,Es Senia,Orã,Argélia,ORN,35.623858,-0.6211829999999999,68
433,433,Chisinau Intl,Chisinau,Moldávia,KIV,46.927744,28.930978,68
434,434,Lusaka Intl,Lusaca,Zâmbia,LUN,-15.330817,28.452628,67
435,435,Dortmund,Dortmund,Alemanha,DTM,51.518314,7.612242,67
436,436,Entebbe Intl,Entebbe,Uganda,EBB,0.042386,32.443503,67
437,437,Mwalimu Julius K Nyerere Intl,Dar Es Salaam,Tanzânia,DAR,-6.878111,39.202625,67
438,438,Strachowice,Breslávia,Polônia,WRO,51.102683,16.885836,66
439,439,Khudzhand Airport,Khujand,Tadjiquistão,LBD,40.2154,69.6947,66
440,440,Rotterdam,Roterdã,Holanda,RTM,51.956944,4.437222,66
441,441,Southampton,Southampton,Reino Unido,SOU,50.950261,-1.356803,66
442,442,Danang Intl,Danang,Vietnã,DAD,16.043917,108.19937,66
443,443,Cyril E King,São Tomás,Ilhas Virgens,STT,18.337306,-64.973361,66
444,444,Marechal Rondon,Cuiabá,Brasil,CGB,-15.652931,-56.116719,66
445,445,Ouagadougou,Ouagadougou,Burkina Faso,OUA,12.353194,-1.512417,66
446,446,Ljubljana,Liubliana,Eslovênia,LJU,46.223686,14.457611,66
447,447,Tenerife Norte,Tenerife,Espanha,TFN,28.482653,-16.341536,66
448,448,Phoenix-Mesa Gateway,Mesa,Estados Unidos,AZA,33.307833,-111.655,64
449,449,James M Cox Dayton Intl,Dayton,Estados Unidos,DAY,39.902375,-84.219375,64
450,450,Eduardo Gomes Intl,Manaus,Brasil,MAO,-3.038611,-60.049721,64
451,451,Wellington Intl,Wellington,Nova Zelândia,WLG,-41.327221,174.805278,64
452,452,Lokpriya Gopinath Bordoloi International Airport,Guwahati,Índia,GAU,26.106092,91.585939,63
453,453,Cardiff,Cardife,Reino Unido,CWL,51.396667,-3.343333,63
454,454,Bodrum - Milas,Bodrum,Peru,BJV,37.249,27.667,63
455,455,Hato,Willemstad,Antilhas Holandesas,CUR,12.188853,-68.959803,63
456,456,Skavsta,Estocolmo,Suécia,NYO,58.788636,16.912189,62
457,457,Mc Ghee Tyson,Knoxville,Estados Unidos,TYS,35.810972,-83.994028,62
458,458,Tucson Intl,Tucson,Estados Unidos,TUS,32.116083,-110.941028,62
459,459,St Petersburg Clearwater Intl,São Petersburgo,Estados Unidos,PIE,27.910167,-82.687389,62
460,460,Sendai,Sendai,Japão,SDJ,38.139722,140.916944,62
461,461,Providenciales,Providenciales,Ilhas Turcas e Caicos,PLS,21.773625,-72.265886,62
462,462,Alghero,Algueiro,Itália,AHO,40.632133,8.290772,62
463,463,Calicut,Calicute,Índia,CCJ,11.136839,75.9553,61
464,464,Phnom Penh Intl,Phnom Penh,Camboja,PNH,11.546556,104.844139,61
465,465,Santos Dumont,Rio de Janeiro,Brasil,SDU,-22.910461,-43.163133,61
466,466,Lhasa-Gonggar,Lassa,China,LXA,29.297778,90.911944,60
467,467,Erbil Intl,Arbil,Iraque,EBL,36.237611,43.963158,60
468,468,Albany Intl,Albany,Estados Unidos,ALB,42.748267,-73.801692,60
469,469,Greater Rochester Intl,Rochester,Estados Unidos,ROC,43.118866,-77.672389,60
470,470,Osh,Osh,Quirguistão,OSS,40.608989,72.793269,60
471,471,Nnamdi Azikiwe Intl,Abuja,Nigéria,ABV,9.006792,7.263172,60
472,472,Peshawar Intl,Peshawar,Paquistão,PEW,33.993911,71.514581,60
473,473,Zhangxiao,Yuncheng,China,YCU,35.018,110.993,58
474,474,Baotou Airport,Baotou,China,BAV,40.56,109.997,58
475,475,Shannon,Shannon,Irlanda,SNN,52.701978,-8.924817000000001,58
476,476,Greenville-Spartanburg International,Greenville,Estados Unidos,GSP,34.895556,-82.218889,58
477,477,Adi Sutjipto,Jogjacarta,Indonésia,JOG,-7.788181,110.431758,58
478,478,Adams Fld,Pedra pequena,Estados Unidos,LIT,34.729444,-92.224306,58
479,479,Subang-Sultan Abdul Aziz Shah Intl,Kuala Lumpur,Malásia,SZB,3.130583,101.549333,58
480,480,Goa,Goa,Índia,GOI,15.380833,73.831422,58
481,481,Le Raizet,Pointe-à-Pitre,Guadalupe,PTP,16.265306,-61.531806,58
482,482,Ching Chuang Kang,Taichung,Taiwan,RMQ,24.264668,120.62058,58
483,483,Yellowknife,Faca Amarela,Canadá,YZF,62.462778,-114.440278,58
484,484,Norman Manley Intl,Kingston,Jamaica,KIN,17.935667,-76.7875,58
485,485,Des Moines Intl,Des Moines,Estados Unidos,DSM,41.533972,-93.663083,57
486,486,Bethel,Betel,Estados Unidos,BET,60.779778,-161.838,57
487,487,Alfonso Bonilla Aragon Intl,Cáli,Colômbia,CLO,3.543222,-76.381583,57
488,488,Quebec Jean Lesage Intl,Quebeque,Canadá,YQB,46.791111,-71.393333,57
489,489,Harare Intl,Harare,Zimbábue,HRE,-17.931806,31.092847,57
490,490,Pyrzowice,Katowice,Polônia,KTW,50.474253,19.080019,56
491,491,Reno Tahoe Intl,Reno,Estados Unidos,RNO,39.499108,-119.768108,56
492,492,Gerald R Ford Intl,Grandes Corredeiras,Estados Unidos,GRR,42.880833,-85.522806,56
493,493,Gold Coast,Coolangatta,Austrália,OOL,-28.164444,153.504722,56
494,494,Kazan,Cazã,Rússia,KZN,55.606186,49.278728,56
495,495,Rostov Na Donu,Rostov,Rússia,ROV,47.258208,39.818089,56
496,496,Port Vila Bauerfield,Port Vila,Vanuatu,VLI,-17.699325,168.319794,56
497,497,Philip S W Goldson Intl,Cidade de Belize,Belize,BZE,17.539144,-88.308203,56
498,498,Trapani Birgi,Trápani,Itália,TPS,37.911403,12.487961,56
499,499,Inezgane,Agadir,Marrocos,AGA,30.381353,-9.546311,56
500,500,Tulsa Intl,Tulsa,Estados Unidos,TUL,36.198389,-95.888111,55
501,501,Theodore Francis Green State,Providência,Estados Unidos,PVD,41.732581,-71.420383,55
502,502,Senou,Bamaco,Mali,BKO,12.533544,-7.949944,55
503,503,Ndjili Intl,Kinshasa,Congo (Kinshasa),FIH,-4.38575,15.444569,55
504,504,Ivato,Antananarivo,Madagáscar,TNR,-18.79695,47.478806,54
505,505,Bromma,Estocolmo,Suécia,BMA,59.354372,17.94165,54
506,506,Kurumoch,Samara,Rússia,KUF,53.5,50.15,54
507,507,Hang Nadim,Batam,Indonésia,BTH,1.121028,104.118753,54
508,508,Fairbanks Intl,Fairbanks,Estados Unidos,FAI,64.815114,-147.856267,54
509,509,Kabul Intl,Cabul,Afeganistão,KBL,34.565853,69.212328,54
510,510,Warsaw Modlin,Varsóvia,Polônia,WMI,52.451111,20.651667,52
511,511,Langnes,Tromsø,Noruega,TOS,69.683333,18.918919,52
512,512,Tunxi International Airport,Huangshan,China,TXN,29.7333,118.256,52
513,513,Syracuse Hancock Intl,Siracusa,Estados Unidos,SYR,43.111187,-76.106311,52
514,514,Kuching Intl,Kuching,Malásia,KCH,1.484697,110.346933,52
515,515,Sochi,Sóchi,Rússia,AER,43.449928,39.956589,52
516,516,Knevichi,Vladivostoque,Rússia,VVO,43.398953,132.148017,52
517,517,Jose Maria Cordova,Rio Negro,Colômbia,MDE,6.164536,-75.423119,52
518,518,Zadar,Zadar,Croácia,ZAD,44.108269,15.346697,52
519,519,Maya Maya,Brazavile,Congo (Brazavile),BZV,-4.2517,15.253031,51
520,520,Piedmont Triad,Greensboro,Estados Unidos,GSO,36.09775,-79.937306,51
521,521,Palm Springs Intl,Palm Springs,Estados Unidos,PSP,33.829667,-116.506694,51
522,522,El Alto Intl,La Paz,Bolívia,LPB,-16.513339,-68.192256,51
523,523,Owen Roberts Intl,Georgetown,Ilhas Cayman,GCM,19.292778,-81.35775,51
524,524,Ordos Ejin Horo,Dongsheng,China,DSN,39.85,110.033,50
525,525,Ontario Intl,Ontário,Estados Unidos,ONT,34.056,-117.601194,50
526,526,Wattay Intl,Vienciana,Laos,VTE,17.988322,102.563256,50
527,527,Lamezia Terme,Lamézia,Itália,SUF,38.905394,16.242269,50
528,528,Benina,Bengasi,Líbia,BEN,32.096786,20.269472,50
529,529,Exeter,Exeter,Reino Unido,EXT,50.734444,-3.413889,49
530,530,Nome,Nome,Estados Unidos,OME,64.512203,-165.445247,49
531,531,Leon M Ba,Libreville,Gabão,LBV,0.4586,9.412283,48
532,532,Yichang Airport,Yichang,China,YIH,30.671,111.441,48
533,533,NW Arkansas Regional,Bentonville,Estados Unidos,XNA,36.2818694,-94.3068111,48
534,534,Honiara International,Honiara,Ilhas Salomão,HIR,-9.428,160.054789,48
535,535,Jinghong,Jinghong,China,JHG,21.973914,100.759611,48
536,536,Miri,Miri,Malásia,MYY,4.322014,113.986806,48
537,537,Viru Viru Intl,Santa Cruz,Bolívia,VVI,-17.644756,-63.135364,48
538,538,Ahwaz,Ahwaz,Irã,AWZ,31.337431,48.76195,48
539,539,Toussaint Louverture Intl,Porto Príncipe,Haiti,PAP,18.58005,-72.292542,48
540,540,General Ignacio P Garcia Intl,Hermosillo,México,HMO,29.095858,-111.047858,48
541,541,Skopje,Escópia,Macedônia,SKP,41.961622,21.621381,48
542,542,Mediterranee,Montpellier,França,MPL,43.576194,3.963014,48
543,543,Rankin Inlet,Entrada Rankin,Canadá,YRT,62.81139,-92.115833,48
544,544,El Paso Intl,El Paso,Estados Unidos,ELP,31.80725,-106.377583,47
545,545,Ponta Delgada,Ponta Delgada,Portugal,PDL,37.741184,-25.69787,47
546,546,Allgau,Memmingen,Alemanha,FMM,47.988758,10.2395,46
547,547,Savannah Hilton Head Intl,Savana,Estados Unidos,SAV,32.127583,-81.202139,46
548,548,Westchester Co,planícies brancas,Estados Unidos,HPN,41.066959,-73.707575,46
549,549,Brunei Intl,Bandar Seri Begawan,Brunei,BWN,4.9442,114.928353,46
550,550,Ufa,Ufá,Rússia,UFA,54.557511,55.874417,46
551,551,Le Lamentin,Forte de França,Martinica,FDF,14.591033,-61.003175,46
552,552,Grantley Adams Intl,Bridgetown,Barbados,BGI,13.074603,-59.492456,46
553,553,Carrasco Intl,Montevidéu,Uruguai,MVD,-34.838417,-56.030806,46
554,554,La Mesa Intl,São Pedro Sula,Honduras,SAP,15.452639,-87.923556,46
555,555,Roschino,Tiumen,Rússia,TJM,57.189567,65.3243,45
556,556,Ralph Wien Mem,Kotzebue,Estados Unidos,OTZ,66.884678,-162.59855,45
557,557,Daniel Oduber Quiros Intl,Libéria,Costa Rica,LIR,10.593289,-85.544408,45
558,558,Akron Canton Regional Airport,Akron,Estados Unidos,CAK,40.9160833,-81.4421944,44
559,559,Aden Intl,Áden,Iémen,ADE,12.829542,45.028792,44
560,560,Ketchikan Intl,Ketchikan,Estados Unidos,KTN,55.355556,-131.71375,44
561,561,Dresden,Dresda,Alemanha,DRS,51.132767,13.767161,44
562,562,Mineralnyye Vody,Mineralnye Vody,Rússia,MRV,44.225072,43.081889,44
563,563,Zhuliany Intl,Kiev,Ucrânia,IEV,50.401694,30.449697,44
564,564,Sept Iles,Sept-ilhas,Canadá,YZV,50.223333,-66.265556,44
565,565,Casale,Brindisi,Itália,BDS,40.657633,17.947033,44
566,566,Freetown Lungi,Cidade Livre,Serra Leoa,FNA,8.616444,-13.195489,44
567,567,Mianyang Airport,Mianyang,China,MIG,31.4281,104.741,43
568,568,Santa Genoveva,Goiânia,Brasil,GYN,-16.632033,-49.220686,43
569,569,St Johns Intl,São João,Canadá,YYT,47.61861,-52.751945,43
570,570,Jerez,Jerez,Espanha,XRY,36.744622,-6.060111,43
571,571,Durban Intl,Durban,África do Sul,DUR,-29.970089,30.950519,42
572,572,Save,Gotemburgo,Suécia,GSE,57.774722,11.870372,42
573,573,Lawica,Poznań,Polônia,POZ,52.421031,16.826325,42
574,574,Dayong Airport,Dayong,China,DYG,29.1028,110.443,42
575,575,Prestwick,Prestwick,Reino Unido,PIK,55.509444,-4.586667,42
576,576,Belfast City,Belfast,Reino Unido,BHD,54.618056,-5.8725000000000005,42
577,577,Aktau,Aktau,Cazaquistão,SCO,43.86005,51.091978,42
578,578,Husein Sastranegara,Bandung,Indonésia,BDO,-6.900625,107.576294,42
579,579,Lihue,Lihue,Estados Unidos,LIH,21.975983,-159.338958,42
580,580,Pensacola Rgnl,Pensacola,Estados Unidos,PNS,30.473425,-87.186611,42
581,581,Sam Ratulangi,Manado,Indonésia,MDC,1.549447,124.925878,42
582,582,Hercilio Luz,Florianópolis,Brasil,FLN,-27.670489,-48.547181,42
583,583,Pristina,Pristina,Sérvia,PRN,42.572778,21.035833,42
584,584,Cluj Napoca,Cluj-napoca,Romênia,CLJ,46.785167,23.686167,42
585,585,Aalborg,Aalborg,Dinamarca,AAL,57.092789,9.849164,41
586,586,Kona Intl At Keahole,Kona,Estados Unidos,KOA,19.738767,-156.045631,41
587,587,Boise Air Terminal,Boise,Estados Unidos,BOI,43.564361,-116.222861,41
588,588,Chinggis Khaan Intl,Ulaanbaatar,Mongólia,ULN,47.843056,106.766639,41
589,589,Gnassingbe Eyadema Intl,Lomé,Ir,LFW,6.165611,1.254511,41
590,590,Kilimanjaro Intl,Kilimanjaro,Tanzânia,JRO,-3.429406,37.074461,41
591,591,St Denis Gillot,St.-denis,Reunião,RUN,-20.8871,55.510308,40
592,592,Beihai Airport,Beihai,China,BHY,21.5394,109.294,40
593,593,Baden Airpark,Karlsruhe/Baden Baden,Alemanha,FKB,48.7793,8.08048,40
594,594,Esfahan Shahid Beheshti Intl,Isfahan,Irã,IFN,32.750836,51.861267,40
595,595,Xuzhou Guanyin Airport,Xuzhou,China,XUZ,34.16,117.11,40
596,596,Ambouli International Airport,Djibuti,Djibuti,JIB,11.5472,43.1594,40
597,597,Blue Grass,Lexington KY,Estados Unidos,LEX,38.0365,-84.605889,40
598,598,Manchester Regional Airport,Manchester NH,Estados Unidos,MHT,42.932556,-71.435667,40
599,599,Fresno Yosemite Intl,Fresno,Estados Unidos,FAT,36.776194,-119.71814,40
600,600,Juneau Intl,Juneau,Estados Unidos,JNU,58.354972,-134.576278,40
601,601,Wichita Mid Continent,Wichita,Estados Unidos,ICT,37.649944,-97.433056,40
602,602,Balandino,Cheliabinsk,Rússia,CEK,55.305836,61.503333,40
603,603,M R Stefanik,Bratislava,Eslováquia,BTS,48.170167,17.212667,40
604,604,Genova Sestri,Génova,Itália,GOA,44.413333,8.8375,40
605,605,Saint Catherine,Calvi,França,CLY,42.530753,8.793189,40
606,606,Murcia San Javier,Múrcia,Espanha,MJV,37.774972,-0.8123889999999999,40
607,607,Harrisburg Intl,Harrisburgo,Estados Unidos,MDT,40.193494,-76.763403,39
608,608,Del Caribe Intl Gen Santiago Marino,Porlamar,Venezuela,PMV,10.912926,-63.967581,39
609,609,Reus,Reus,Espanha,REU,41.147392,1.167172,39
610,610,Zhanjiang Airport,Zhanjiang,China,ZHA,21.2144,110.358,38
611,611,Bournemouth,Bournemouth,Reino Unido,BOH,50.78,-1.8425,38
612,612,Yaounde Nsimalen,Yaoundé,Camarões,NSI,3.722556,11.553269,38
613,613,Windhoek Hosea Kutako International Airport ,Windhoek,Namíbia,WDH,-22.486667,17.4625,38
614,614,Kaunas Intl,Kaunas,Lituânia,KUN,54.963919,24.084778,38
615,615,Leite Lopes,Ribeirão Preto,Brasil,RAO,-21.134167,-47.774189,38
616,616,Bandar Abbass Intl,Bandar Abbas,Irã,BND,27.218317,56.37785,38
617,617,Graz,Graz,Áustria,GRZ,46.991067,15.439628,38
618,618,Santander,Santander,Espanha,SDR,43.427064,-3.820006,38
619,619,Ibn Batouta,Tânger,Marrocos,TNG,35.726917,-5.916889,38
620,620,Odesa Intl,Odessa,Ucrânia,ODS,46.426767,30.676464,37
621,621,Hewanorra Intl,Hewandorra,Santa Lúcia,UVF,13.733194,-60.952597,37
622,622,Nairobi Wilson,Nairóbi,Quênia,WIL,-1.321719,36.814833,37
623,623,Yangzhou Taizhou Airport,Yangzhou,China,YTY,32.5617,119.715,36
624,624,Pointe Noire,Ponta Negra,Congo (Brazavile),PNR,-4.816028,11.886597,36
625,625,Yiwu Airport,Yiwu,China,YIW,29.3447,120.032,36
626,626,Shubuling Airport,Lin Yi,China,LYI,35.0461,118.412,36
627,627,El Aroui Airport,El Aroui,Marrocos,NDR,34.9888,-3.02821,36
628,628,Iqaluit,Iqaluit,Canadá,YFB,63.75639,-68.555832,36
629,629,Nantong Airport,Nantong,China,NTG,32.0708,120.976,36
630,630,Guernsey,Guernsey,Guernsey,GCI,49.434956,-2.601969,36
631,631,Nizhny Novgorod,Níjni Novgorod,Rússia,GOJ,56.230119,43.784042,36
632,632,Conakry,Conacri,Guiné,CKY,9.576889,-13.611961,36
633,633,Huntsville International Airport-Carl T Jones Field,Huntsville,Estados Unidos,HSV,34.6371944,-86.7750556,36
634,634,Bob Hope,Burbank,Estados Unidos,BUR,34.200667,-118.358667,36
635,635,Long Beach,Praia Longa,Estados Unidos,LGB,33.817722,-118.151611,36
636,636,Jackson Evers Intl,Jackson,Estados Unidos,JAN,32.311167,-90.075889,36
637,637,Dongshan,Hailar,China,HLD,49.204997,119.825,36
638,638,Sultan Ismail,Johor Bahru,Malásia,JHB,1.641308,103.669619,36
639,639,Sultan Syarif Kasim Ii,Pekanbaru,Indonésia,PKU,0.460786,101.444539,36
640,640,Samui,Ko Samui,Tailândia,USM,9.547794,100.062272,36
641,641,Lucknow,Luck agora,Índia,LKO,26.760594,80.889339,36
642,642,Vishakhapatnam,Vishakhapatnam,Índia,VTZ,17.721167,83.224483,36
643,643,Silvio Pettirossi Intl,Assunção,Paraguai,ASU,-25.23985,-57.519133,36
644,644,Kalibo,Kalibó,Filipinas,KLO,11.679431,122.376294,36
645,645,Kagoshima,Kagoshima,Japão,KOJ,31.803397,130.719408,36
646,646,Toncontin Intl,Tegucigalpa,Honduras,TGU,14.060883,-87.217197,36
647,647,Almeria,Almería,Espanha,LEI,36.843936,-2.370097,36
648,648,Saiss,Fez,Marrocos,FEZ,33.927261,-4.977958,36
649,649,Charlotte County-Punta Gorda Airport,Ponta Gorda,Estados Unidos,PGD,26.919722,-81.990556,35
650,650,Bodo,Bodo,Noruega,BOO,67.269167,14.365278,35
651,651,Cedar Rapids,Cedro Rapids,Estados Unidos,CID,41.884694,-91.710806,35
652,652,Sentani,Jayapura,Indonésia,DJJ,-2.576953,140.516372,35
653,653,Melville Hall,Domínica,Domínica,DOM,15.547028,-61.3,35
654,654,Amilcar Cabral Intl,Amílcar Cabral,cabo Verde,SID,16.741389,-22.949444,35
655,655,Maputo,Maputo,Moçambique,MPM,-25.920836,32.572606,34
656,656,Yancheng Airport,Yancheng,China,YNZ,33.3856,120.125,34
657,657,Praia International Airport,Praia,Ilha de Santiago,RAI,0.0,14.9245,34
658,658,Achmad Yani,Semarang,Indonésia,SRG,-6.971447,110.374122,34
659,659,Columbia Metropolitan,Colômbia,Estados Unidos,CAE,33.938833,-81.119528,34
660,660,Dane Co Rgnl Truax Fld,Madison,Estados Unidos,MSN,43.139858,-89.337514,34
661,661,Langkawi Intl,Pulau,Malásia,LGK,6.329728,99.728667,34
662,662,Coimbatore,Coimbatore,Índia,CJB,11.030031,77.043383,34
663,663,Jaipur,Jaipur,Índia,JAI,26.824192,75.812161,34
664,664,Omsk,Omsk,Rússia,OMS,54.967042,73.310514,34
665,665,Lviv Intl,Lviv,Ucrânia,LWO,49.8125,23.956111,34
666,666,Diori Hamani,Niamey,Níger,NIM,13.481547,2.183614,34
667,667,Campo Grande,Campo Grande,Brasil,CGR,-20.468667,-54.6725,34
668,668,Hiroshima,Hiroshima,Japão,HIJ,34.436111,132.919444,34
669,669,Komatsu,Kanazawa,Japão,KMQ,36.394611,136.406544,34
670,670,Nagasaki,Nagasaki,Japão,NGS,32.916944,129.913611,34
671,671,Sioux Lookout,Mirante Sioux,Canadá,YXL,50.113889,-91.905278,34
672,672,Adana,Adana,Peru,ADA,36.982166,35.280388,34
673,673,Guipavas,Brest,França,BES,48.447911,-4.418539,34
674,674,Asturias,Avilés,Espanha,OVD,43.563567,-6.034622,34
675,675,Key West Intl,Key West,Estados Unidos,EYW,24.556111,-81.759556,33
676,676,Long Island Mac Arthur,Islip,Estados Unidos,ISP,40.79525,-73.100222,33
677,677,Mandalay Intl,Mandalai,Birmânia,MDL,21.702156,95.977928,33
678,678,Khomutovo,Iujno-Sakhalinsk,Rússia,UUS,46.888672,142.717531,33
679,679,Kish Island,Ilha de Kish,Irã,KIH,26.526156,53.980211,33
680,680,General R Fierro Villalobos Intl,chihuahua,México,CUU,28.702875,-105.964567,33
681,681,Dionysios Solomos,Zaquintos,Grécia,ZTH,37.750853,20.88425,33
682,682,Regina Intl,Regina,Canadá,YQR,50.431944,-104.665833,33
683,683,Lombok International Airport,Praya,Indonésia,LOP,-8.7573222,116.276675,32
684,684,Sturup,Malmoé,Suécia,MMX,55.530193,13.371639,32
685,685,Lianyungang Airport,Lianyungang,China,LYG,34.55,119.25,32
686,686,Jingdezhen Airport,Jingdezhen,China,JDZ,29.3386,117.176,32
687,687,Changzhi Airport,Changzhi,China,CIH,36.2475,113.126,32
688,688,Niigata,Niigata,Japão,KIJ,37.5711,139.0646,32
689,689,Novyi Urengoy,Novy Urengoy,Rússia,NUX,66.041811,76.313938,32
690,690,Jiuzhaigou Huanglong,Jiuzhaigou,China,JZH,32.857,103.683,32
691,691,Fort Wayne,Fort Wayne,Estados Unidos,FWA,40.978472,-85.195139,32
692,692,Lovell Fld,Chattanooga,Estados Unidos,CHA,35.035278,-85.203808,32
693,693,Townsville,Townsville,Austrália,TSV,-19.2525,146.765278,32
694,694,Krabi,Krabi,Tailândia,KBV,8.095969,98.988764,32
695,695,Shah Amanat Intl,Chittagong,Bangladesh,CGP,22.249611,91.813286,32
696,696,Bagdogra,Bagdogra,Índia,IXB,26.681206,88.328567,32
697,697,Devi Ahilyabai Holkar,Indore,Índia,IDR,22.721786,75.801086,32
698,698,Goiabeiras,Vitória,Brasil,VIX,-20.258056,-40.286389,32
699,699,Augusto Severo,Natal,Brasil,NAT,-5.911417,-35.247717,32
700,700,Mohamed Boudiaf Intl,Constantino,Argélia,CZL,36.276028,6.620386,32
701,701,General Heriberto Jara Intl,Vera Cruz,México,VER,19.145931,-96.187267,32
702,702,Cozumel Intl,Cozumel,México,CZM,20.522403,-86.925644,32
703,703,Culiacan Intl,Culiacán,México,CUL,24.764547,-107.474717,32
704,704,Podgorica,Podgorica,Montenegro,TGD,42.359392,19.251894,32
705,705,Sarajevo,Sarajevo,Bósnia e Herzegovina,SJJ,43.824583,18.331467,32
706,706,Monrovia Roberts Intl,Monróvia,Libéria,ROB,6.233789,-10.362311,32
707,707,Mangalore,Mangalore,Índia,IXE,12.961267,74.890069,31
708,708,Habib Bourguiba Intl,Monastir,Tunísia,MIR,35.758056,10.754722,31
709,709,Marechal Cunha Machado Intl,São Luís,Brasil,SLZ,-2.585361,-44.234139,31
710,710,Wabush,Wabush,Canadá,YWK,52.921944,-66.864444,31
711,711,Santorini,Thira,Grécia,JTR,36.399169,25.479333,31
712,712,Dzaoudzi Pamandzi,Dzaoudzi,Maiote,DZA,-12.804722,45.281113,30
713,713,Kelowna,Kelowna,Canadá,YLW,49.956112,-119.377778,30
714,714,Nanping Wuyishan Airport,Wuyishan,China,WUS,27.7019,118.001,30
715,715,Chifeng Airport,Chifeng,China,CIF,42.235,118.908,30
716,716,Ireland West Knock,Connaught,Irlanda,NOC,53.910297,-8.818491999999999,30
717,717,Quad City Intl,Molina,Estados Unidos,MLI,41.448528,-90.507539,30
718,718,Bermuda Intl,Bermudas,Bermudas,BDA,32.364042,-64.678703,30
719,719,Peoria Regional,Peoria,Estados Unidos,PIA,40.664203,-89.693258,30
720,720,Roanoke Regional,Roanoke VA,Estados Unidos,ROA,37.325472,-79.975417,30
721,721,Tallahassee Rgnl,Tallahassee,Estados Unidos,TLH,30.396528,-84.350333,30
722,722,Spokane Intl,Spokane,Estados Unidos,GEG,47.619861,-117.533833,30
723,723,Dr Ambedkar Intl,Nagpur,Índia,NAG,21.092192,79.047183,30
724,724,Ashgabat,Askhabad,Turcomenistão,ASB,37.986814,58.360967,30
725,725,Khrabrovo,Kaliningrado,Rússia,KGD,54.89005,20.592633,30
726,726,Donetsk Intl,Donetsk,Ucrânia,DOK,48.073611,37.739722,30
727,727,Ten Cel Av Cesar Bombonato,Uberlândia,Brasil,UDI,-18.882844,-48.225594,30
728,728,Tabriz Intl,Tabriz,Irã,TBZ,38.133889,46.235,30
729,729,Grand Bahama Intl,Porto Livre,Bahamas,FPO,26.558686,-78.695553,30
730,730,Goose Bay,Baía dos Gansos,Canadá,YYR,53.319168,-60.425833,30
731,731,General Rafael Buelna Intl,Mazatlán,México,MZT,23.161356,-106.266072,30
732,732,Licenciado Manuel Crescencio Rejon Int,Mérida,México,MID,20.936981,-89.657672,30
733,733,Saskatoon J G Diefenbaker Intl,Saskatoon,Canadá,YXE,52.170834,-106.699722,30
734,734,Pula,Pula,Croácia,PUY,44.893533,13.922192,30
735,735,Alykel,Norilsk,Rússia,NSK,69.311053,87.332183,29
736,736,Syamsudin Noor,Banjarmasin,Indonésia,BDJ,-3.442356,114.762553,29
737,737,Srinagar,Srinagar,Índia,SXR,33.987139,74.77425,29
738,738,Point Salines Intl,Ponto Salinas,Granada,GND,12.004247,-61.786192,29
739,739,Abha,Abha,Arábia Saudita,AHB,18.240367,42.656625,29
740,740,Managua Intl,Manágua,Nicarágua,MGA,12.141494,-86.168178,29
741,741,Guanajuato Intl,Del Bajío,México,BJX,20.993464,-101.480847,29
742,742,Gregorio Luperon Intl,Porto Plata,República Dominicana,POP,19.7579,-70.570033,29
743,743,Malabo,Malabo,Guiné Equatorial,SSG,3.755267,8.708717,28
744,744,Yanji Airport,Yanji,China,YNJ,42.8828,129.451258,28
745,745,Huangyan Luqiao Airport,Huangyan,China,HYN,28.5622,121.429,28
746,746,Bailian Airport,Liuzhou,China,LZH,24.2075,109.391,28
747,747,Ercan International Airport,Nicósia,Chipre,ECN,35.1547,33.4961,28
748,748,Southend,Southend,Reino Unido,SEN,51.571389,0.695556,28
749,749,Springfield Branson Natl,Springfield,Estados Unidos,SGF,37.245667,-93.388639,28
750,750,Hector International Airport,Fargo,Estados Unidos,FAR,46.92065,-96.8157639,28
751,751,Baghdad International Airport,Bagdá,Iraque,BGW,33.262539,44.234578,28
752,752,Santarem,Santarém,Brasil,STM,-2.422431,-54.792789,28
753,753,Francisco Bangoy International,Davao,Filipinas,DVO,7.125522,125.645778,28
754,754,Trenton Mercer,Trento,Estados Unidos,TTN,40.276692,-74.813469,28
755,755,Sultan Ismail Petra,Kota Bahru,Malásia,KBR,6.16685,102.293014,28
756,756,Pattimura,Ambon,Indonésia,AMQ,-3.710264,128.089136,28
757,757,Surgut,Surgut,Rússia,SGC,61.343694,73.401842,28
758,758,Nizhnevartovsk,Nijnevartovsk,Rússia,NJC,60.949272,76.483617,28
759,759,Dnipropetrovsk Intl,Dnepropetrovsk,Ucrânia,DNK,48.357222,35.100556,28
760,760,La Chinita Intl,Maracaibo,Venezuela,MAR,10.558208,-71.727856,28
761,761,Ishigaki,Ishigaki,Japão,ISG,24.344525,124.186983,28
762,762,Quetta,Queta,Paquistão,UET,30.251369,66.937764,28
763,763,Marsh Harbour,Porto Pântano,Bahamas,MHH,26.511406,-77.083472,28
764,764,Juan Manuel Galvez Intl,Roatán,Honduras,RTB,16.316814,-86.522961,28
765,765,City Centre,Toronto,Canadá,YTZ,43.627499,-79.396167,28
766,766,Sud Corse,Figari,França,FSC,41.500557,9.097777,28
767,767,Anglet,Biarritz-Baiona,França,BIQ,43.468419,-1.5233249999999998,28
768,768,Rabil,Boa Vista,cabo Verde,BVC,16.136531,-22.888897,28
769,769,Mahlon Sweet Fld,Eugênio,Estados Unidos,EUG,44.124583,-123.211972,27
770,770,City Of Colorado Springs Muni,Colorado Springs,Estados Unidos,COS,38.805805,-104.700778,27
771,771,Burlington Intl,Burlington,Estados Unidos,BTV,44.471861,-73.153278,27
772,772,Sultan Mahmud Badaruddin Ii,Palembang,Indonésia,PLM,-2.89825,104.699903,27
773,773,Rarotonga Intl,Avarua,Ilhas Cook,RAR,-21.202739,-159.805556,27
774,774,Licenciado Adolfo Lopez Mateos Intl,Toluca,México,TLC,19.337072,-99.566008,27
775,775,Thunder Bay,Baia do Trovão,Canadá,YQT,48.371944,-89.323889,27
776,776,Bujumbura Intl,Bujumbura,Burundi,BJM,-3.324019,29.318519,27
777,777,Seychelles Intl,Mahé,Seicheles,SEZ,-4.674342,55.521839,26
778,778,Luzhou Airport,Luzhou,China,LZO,28.8522,105.393,26
779,779,Zhoushan Airport,Zhoushan,China,HSN,29.9342,122.362,26
780,780,Ganzhou Airport,Ganzhou,China,KOW,25.8258,114.912,26
781,781,Xiangfan Airport,Xiangfan,China,XFN,32.1506,112.291,26
782,782,Tongliao Airport,Tongliao,China,TGO,43.5567,122.2,26
783,783,Vigra,Alesund,Noruega,AES,62.560372,6.110164,26
784,784,Lehigh Valley Intl,Allentown,Estados Unidos,ABE,40.652083,-75.440806,26
785,785,Diosdado Macapagal International,Cidade de Angeles,Filipinas,CRK,15.185833,120.560278,26
786,786,Bishop International,pedra,Estados Unidos,FNT,42.965424,-83.743629,26
787,787,Sarasota Bradenton Intl,Sarasota,Estados Unidos,SRQ,27.395444,-82.554389,26
788,788,Charlottesville-Albemarle,Charlottesville VA,Estados Unidos,CHO,38.138639,-78.452861,26
789,789,Sioux Falls,Cataratas Sioux,Estados Unidos,FSD,43.582014,-96.741914,26
790,790,Wilmington Intl,Wilmington,Estados Unidos,ILM,34.270615,-77.902569,26
791,791,Friedrichshafen,Friedrichshafen,Alemanha,FDH,47.671317,9.511486,26
792,792,Kashi,Kashi,China,KHG,39.542922,76.019956,26
793,793,Canberra,Canberra,Austrália,CBR,-35.306944,149.195,26
794,794,Mount Isa,Monte Isa,Austrália,ISA,-20.663889,139.488611,26
795,795,Luang Phabang Intl,Luang Prabang,Laos,LPQ,19.897914,102.160764,26
796,796,Zumbi Dos Palmares,Maceió,Brasil,MCZ,-9.510808,-35.791678,26
797,797,Santa Maria,Aracaju,Brasil,AJU,-10.984,-37.070333,26
798,798,Ambrosio L V Taravella,Córdoba,Argentina,COR,-31.323619,-64.207953,26
799,799,Okayama,Okayama,Japão,OKJ,34.756944,133.855278,26
800,800,Taif,Taif,Arábia Saudita,TIF,21.483418,40.544334,26
801,801,La Tontouta,Nouméa,Nova Caledônia,NOU,-22.014553,166.212972,26
802,802,C P A Carlos Rovirosa Intl,Vilahermosa,México,VSA,17.997,-92.817361,26
803,803,Victoria Intl,Vitória,Canadá,YYJ,48.646944,-123.425833,26
804,804,Traian Vuia,Timişoara,Romênia,TSR,45.809861,21.337861,26
805,805,Mikonos,Míconos,Grécia,JMK,37.435128,25.348103,26
806,806,St Jacques,Rennes,França,RNS,48.069508,-1.734794,26
807,807,Mombasa Moi Intl,Mombaça,Quênia,MBA,-4.034833,39.59425,26
808,808,Banjul Intl,Banjul,Gâmbia,BJL,13.337961,-16.652206,26
809,809,Fort Mcmurray,Forte Mcmurray,Canadá,YMM,56.653333,-111.221944,25
810,810,Aniak Airport,Aniak,Estados Unidos,ANI,61.5816,-159.543,25
811,811,Tokua Airport,Tokua,Papua Nova Guiné,RAB,-4.34046,152.38,25
812,812,Patna,Pátina,Índia,PAT,25.591317,85.087992,25
813,813,Pampulha Carlos Drummond De Andrade,Belo Horizonte,Brasil,PLU,-19.851181,-43.950628,25
814,814,Gassim,Gassim,Arábia Saudita,ELQ,26.302822,43.773911,25
815,815,Kamuzu Intl,Lilongwe,Maláui,LLW,-13.789378,33.781,25
816,816,Huai An Lianshui Airport,Huai An,China,HIA,33.7772,119.1478,24
817,817,Karmoy,Haugesund,Noruega,HAU,59.345267,5.208364,24
818,818,Wanxian Airport,Wanxian,China,WXN,30.8361,108.406,24
819,819,Yulin Airport,Yulin,China,UYN,38.2692,109.731,24
820,820,Namangan Airport,Namangan,Uzbequistão,NMA,40.9846,71.5567,24
821,821,Misratah Airport,Misratah,Líbia,MRA,32.325,15.061,24
822,822,Aden Adde International Airport,Mogadíscio,Somália,MGQ,2.01444,45.3047,24
823,823,Tampere Pirkkala,Tampere,Finlândia,TMP,61.414147,23.604392,24
824,824,Broome,Broome,Austrália,BME,-17.8,122.2,24
825,825,Central Illinois Rgnl,Bloomington,Estados Unidos,BMI,40.477111,-88.915917,24
826,826,Billings Logan International Airport,Faturamentos,Estados Unidos,BIL,45.80921,-108.537654,24
827,827,Asheville Regional Airport,Asheville,Estados Unidos,AVL,35.436194,-82.541806,24
828,828,Kobe,Kobe,Japão,UKB,34.632778,135.223889,24
829,829,Gainesville Rgnl,Gainesville,Estados Unidos,GNV,29.690056,-82.271778,24
830,830,Alice Springs,Alice Primavera,Austrália,ASP,-23.806667,133.902222,24
831,831,Jammu,Jammu,Índia,IXJ,32.689142,74.837389,24
832,832,Terrance B Lettsome Intl,Tortola,Ilhas Virgens Britânicas,EIS,18.444834,-64.542975,24
833,833,Rafael Nunez,Cartagena,Colômbia,CTG,10.442381,-75.512961,24
834,834,Cataratas Intl,Foz do Iguaçu,Brasil,IGU,-25.59615,-54.487206,24
835,835,Matsuyama,Matsuyama,Japão,MYJ,33.827222,132.699722,24
836,836,Multan Intl,Multan,Paquistão,MUX,30.203222,71.419111,24
837,837,Juan Gualberto Gomez Intl,Varadero,Cuba,VRA,23.034445,-81.435278,24
838,838,Abraham Gonzalez Intl,Cidade Juárez,México,CJS,31.636133,-106.428667,24
839,839,Bern Belp,Berna,Suíça,BRN,46.9141,7.497153,24
840,840,Iasi,Iasi,Romênia,IAS,47.178492,27.620631,24
841,841,A Coruna,A Corunha,Espanha,LCG,43.302061,-8.377256,24
842,842,Burgas,Burgas,Bulgária,BOJ,42.569583,27.515236,24
843,843,Zanzibar,Zanzibar,Tanzânia,ZNZ,-6.222025,39.224886,24
844,844,Juba,Juba,Sudão do Sul,JUB,4.872006,31.601117,24
845,845,Sialkot Airport,Sialcote,Paquistão,SKT,32.5356,74.3639,23
846,846,Londrina,Londrina,Brasil,LDB,-23.333625,-51.130072,23
847,847,Nausori Intl,Nausori,Fiji,SUV,-18.043267,178.559228,23
848,848,Linz,Linz,Áustria,LNZ,48.233219,14.187511,23
849,849,Bale Mulhouse,Mulhouse,França,MLH,47.589583,7.529914,23
850,850,Nouakchott,Nouakschott,Mauritânia,NKC,18.097856,-15.947956,23
851,851,Fuyang Airport,Fuyang,China,FUG,32.9,115.816667,22
852,852,Manzhouli,Manzhouli,China,NZH,49.566667,117.329444,22
853,853,Jasionka,Rzeszów,Polônia,RZE,50.109958,22.019,22
854,854,Kjevik,Kristiansand,Noruega,KRS,58.204214,8.085369,22
855,855,Datong Airport,Datong,China,DAT,40.0603,113.482,22
856,856,Belgorod International Airport,Belgorod,Rússia,EGO,50.6438,36.5901,22
857,857,Santo Pekoa International Airport,santo,Vanuatu,SON,-15.505033,167.219742,22
858,858,Kirkwall,Kirkwall,Reino Unido,KOI,58.957778,-2.905,22
859,859,Isle Of Man,Ilha de Man,Ilha de Man,IOM,54.083333,-4.623889,22
860,860,South Bend Rgnl,curva Sul,Estados Unidos,SBN,41.708661,-86.31725,22
861,861,San Pedro,Sao Pedro,Belize,SPR,17.913936,-87.971075,22
862,862,Nadzab,Nadzab,Papua Nova Guiné,LAE,-6.569828,146.726242,22
863,863,Riyan,Mukalla,Iémen,RIY,14.662639,49.375028,22
864,864,Chiang Rai Intl,Chiang Rai,Tailândia,CEI,19.952342,99.882928,22
865,865,Paderborn Lippstadt,Paderborn,Alemanha,PAD,51.614089,8.616317,22
866,866,Munster Osnabruck,Münster,Alemanha,FMO,52.134642,7.684831,22
867,867,Port Blair,Porto Blair,Índia,IXZ,11.641161,92.729744,22
868,868,Raipur,Raipur,Índia,RPR,21.180406,81.738753,22
869,869,Mount Hagen,Monte Hagen,Papua Nova Guiné,HGU,-5.826789,144.295861,22
870,870,Mukhino,Ulan-ude,Rússia,UUD,51.807764,107.437644,22
871,871,Kadala,Chita,Rússia,HTA,52.026317,113.305556,22
872,872,Robert L Bradshaw,Basse-Terre,São Cristóvão e Nevis,SKB,17.311194,-62.718667,22
873,873,General Manuel Carlos Piar,Guiana,Venezuela,PZO,8.288528,-62.760361,22
874,874,General Jose Antonio Anzoategui Intl,Barcelona,Venezuela,BLA,10.107139,-64.689161,22
875,875,Teniente Alejandro Velasco Astete Intl,Cusco,Peru,CUZ,-13.535722,-71.938781,22
876,876,Gustavo Rojas Pinilla,Ilha de San Andrés,Colômbia,ADZ,12.583594,-81.711192,22
877,877,Olaya Herrera,Medellín,Colômbia,EOH,6.219958,-75.590519,22
878,878,Cerro Moreno Intl,Antofagasta,Chile,ANF,-23.444478,-70.4451,22
879,879,Senador Petronio Portella,Teresina,Brasil,THE,-5.059942,-42.823478,22
880,880,Maraba,Marabá,Brasil,MAB,-5.368589,-49.138025,22
881,881,Presidente Castro Pinto,João Pessoa,Brasil,JPA,-7.148381,-34.950681,22
882,882,Miyazaki,Miyazaki,Japão,KMI,31.877222,131.448611,22
883,883,Zahedan Intl,Zaedã,Irã,ZAH,29.475686,60.906189,22
884,884,Cibao Intl,Santiago,República Dominicana,STI,19.406092,-70.604689,22
885,885,Tivat,Tivat,Montenegro,TIV,42.404664,18.723286,22
886,886,Lajes,Lajes (ilha terceira),Portugal,TER,38.761842,-27.090797,22
887,887,Ronchi Dei Legionari,Ronchi De Legionari,Itália,TRS,45.8275,13.472222,22
888,888,Aktio,Préveza,Grécia,PVK,38.925467,20.765311,22
889,889,Bellegarde,Limoges,França,LIG,45.862778,1.179444,22
890,890,Roumaniere,Bergerac,França,EGC,44.825279,0.5186109999999999,22
891,891,Vigo,Vigo,Espanha,VGO,42.2318,-8.626775,22
892,892,Sale,Rabate,Marrocos,RBA,34.051467,-6.751519,22
893,893,Al Najaf International Airport,Najaf,Iraque,NJF,31.991667,44.404167,21
894,894,Saint Barthelemy,Gustávia,França,SBH,17.9023,-62.8324,21
895,895,Inverness,Inverness,Reino Unido,INV,57.5425,-4.0475,21
896,896,Yeager,charleston,Estados Unidos,CRW,38.373147,-81.593189,21
897,897,Aeroporto de Porto Seguro,Porto Seguro,Brasil,BPS,-16.438611,-39.080833,21
898,898,El Tari,Kupang,Indonésia,KOE,-10.171583,123.671136,21
899,899,Eglin Afb,Valparaíso,Estados Unidos,VPS,30.48325,-86.5254,21
900,900,Birsa Munda,Ranchi,Índia,IXR,23.31425,85.321675,21
901,901,Shymkent,Chimkent,Cazaquistão,CIT,42.364167,69.478889,21
902,902,George F L Charles,Castries,Santa Lúcia,SLU,14.020228,-60.992936,21
903,903,El Plumerillo,Mendoza,Argentina,MDZ,-32.831717,-68.792856,21
904,904,Prince Said Ibrahim,Morôni,Comores,HAH,-11.533661,43.27185,20
905,905,Ndola,Ndola,Zâmbia,NLA,-12.998139,28.664944,20
906,906,Unalakleet Airport,Unalakleet,Estados Unidos,UNK,63.888333,-160.798889,20
907,907,Jining Airport ,Jining,China,JNG,35.417,116.533,20
908,908,Hami Airport,Hami,China,HMI,42.8414,93.6692,20
909,909,La Rochelle-Ile de Re,La Rochelle,França,LRH,46.1792,-1.19528,20
910,910,Mt. Fuji Shizuoka Airport,Shizuoka,Japão,FSZ,34.796111,138.189444,20
911,911,Jiamusi Airport,Jiamusi,China,JMU,46.843394,130.465389,20
912,912,Korla Airport,Korla,China,KRL,41.6978,86.1289,20
913,913,Alta,Alta,Noruega,ALF,69.976111,23.371667,20
914,914,Sulaymaniyah International Airport,Suleimânia,Iraque,ISU,35.5608,45.3147,20
915,915,Norwich,Norwich,Reino Unido,NWI,52.675833,1.282778,20
916,916,Atyrau,Atyrau,Cazaquistão,GUW,47.121944,51.821389,20
917,917,Mudanjiang,Mudanjiang,China,MDG,44.523889,129.568889,20
918,918,Falconara,Ancona,Itália,AOI,43.616389,13.362222,20
919,919,Yibin,Yibin,China,YBP,28.800278,104.544444,20
920,920,Monterey Peninsula,Monterrei,Estados Unidos,MRY,36.587,-121.842944,20
921,921,Portland Intl Jetport,Portland,Estados Unidos,PWM,43.646161,-70.309281,20
922,922,Bellingham Intl,Bellingham,Estados Unidos,BLI,48.792694,-122.537528,20
923,923,Atlantic City Intl,Cidade atlântica,Estados Unidos,ACY,39.457583,-74.577167,20
924,924,Varanasi,Varanasi,Índia,VNS,25.452358,82.859342,20
925,925,Gumrak,Volgogrado,Rússia,VOG,48.782528,44.345544,20
926,926,Thyna,Sfax,Tunísia,SFA,34.717953,10.690972,20
927,927,Arturo Michelena Intl,Valência,Venezuela,VLN,10.149733,-67.9284,20
928,928,Rodriguez Ballon,Arequipa,Peru,AQP,-16.341072,-71.583083,20
929,929,Johan A Pengel Intl,Zandery,Suriname,PBM,5.452831,-55.187783,20
930,930,Ernesto Cortissoz,Barranquilha,Colômbia,BAQ,10.889589,-74.780819,20
931,931,El Tepual Intl,Porto Montt,Chile,PMC,-41.438886,-73.093953,20
932,932,Regional De Maringa Silvio Name Junior,Maringá,Brasil,MGF,-23.476392,-52.016406,20
933,933,Iloilo,Iloilo,Filipinas,ILO,10.713044,122.545297,20
934,934,Hakodate,Hakodate,Japão,HKD,41.77,140.821944,20
935,935,Francisco C Ada Saipan Intl,Saipan,Ilhas Marianas do Norte,SPN,15.119003,145.729356,20
936,936,Rasht,Rasht,Irã,RAS,37.325314,49.605817,20
937,937,Frank Pais Intl,Holguín,Cuba,HOG,20.785589,-76.315108,20
938,938,Torreon Intl,Torreón,México,TRC,25.568278,-103.410583,20
939,939,General Francisco J Mujica Intl,Morelia,México,MLM,19.849944,-101.0255,20
940,940,General Manuel Marquez De Leon Intl,La Paz,México,LAP,24.072694,-110.362475,20
941,941,Casa De Campo Intl,A Romana,República Dominicana,LRM,18.450711,-68.911833,20
942,942,Trabzon,Trebizonda,Peru,TZX,40.995108,39.789728,20
943,943,Prince George,Príncipe Jorge,Canadá,YXS,53.889444,-122.678889,20
944,944,Mitilini,Mitilini,Grécia,MJT,39.056667,26.598333,20
945,945,Kalamata,Calamata,Grécia,KLX,37.068319,22.025525,20
946,946,Salvaza,Carcassona,França,CCF,43.215978,2.306317,20
947,947,Greater Moncton Intl,Moncton,Canadá,YQM,46.112221,-64.678611,20
948,948,Luxor Intl,Luxor,Egito,LXR,25.671028,32.706583,20
949,949,Angads,Oujda,Marrocos,OUD,34.78715,-1.923986,20
950,950,Lubumbashi Intl,Lubumashi,Congo (Kinshasa),FBM,-11.591333,27.530889,20
951,951,Ndjamena Hassan Djamous,N'djamena,Chade,NDJ,12.133689,15.034019,19
952,952,Osnova International Airport,Carcóvia,Ucrânia,HRK,49.924786,36.289986,19
953,953,Maastricht,Maastricht,Holanda,MST,50.911658,5.770144,19
954,954,Wilkes Barre Scranton Intl,Scranton,Estados Unidos,AVP,41.338478,-75.723403,19
955,955,Rick Husband Amarillo Intl,amarelo,Estados Unidos,AMA,35.219369,-101.705931,19
956,956,Lubbock Preston Smith Intl,Lubeca,Estados Unidos,LBB,33.663639,-101.822778,19
957,957,Jorge Wilsterman,Cochabamba,Bolívia,CBB,-17.421058,-66.177114,19
958,958,Diego Aracena Intl,Iquique,Chile,IQQ,-20.535222,-70.181275,19
959,959,Babelthuap,Babelthuap,Palau,ROR,7.367303,134.544278,19
960,960,Yenbo,Yenbo,Arábia Saudita,YNB,24.144244,38.06335,19
961,961,Kuujjuaq,Quujjuaq,Canadá,YVP,58.096111,-68.426944,19
962,962,Nampula,Nampula,Moçambique,APL,-15.105611,39.2818,18
963,963,Sir Seretse Khama Intl,Gaberone,Botsuana,GBE,-24.555225,25.918208,18
964,964,Port Elizabeth Intl,Porto Elizabeth,África do Sul,PLZ,-33.984919,25.617275,18
965,965,Sohag International,Sohag,Egito,HMB,26.341189,31.742983,18
966,966,Nuuk,Godthaab,Groenlândia,GOH,64.190922,-51.678064,18
967,967,Hatay Airport,Hatay,Peru,HTY,36.362778,36.282222,18
968,968,Jing Gang Shan Airport,Ji An,China,JGS,26.8997,114.7375,18
969,969,Evenes,Harstad-Narvik,Noruega,EVE,68.4913,16.678108,18
970,970,Dachuan Airport,Dazhou,China,DAX,31.3,107.5,18
971,971,Cheongju International Airport,Chongju,Coreia do Sul,CJJ,36.7166,127.499119,18
972,972,Robin Hood Doncaster Sheffield Airport,Doncaster,Sheffield,DSA,0.0,53.474722,18
973,973,Upernavik Airport,Upernavik,Groenlândia,JUV,72.7902,-56.1306,18
974,974,Blackpool,Blackpool,Reino Unido,BLK,53.771667,-3.028611,18
975,975,Talagi,Arcangel,Rússia,ARH,64.360281,40.430167,18
976,976,Luoyang Airport,Luoyang,China,LYA,34.41,112.28,18
977,977,Rogue Valley Intl Medford,Medford,Estados Unidos,MFR,42.374228,-122.8735,18
978,978,Appleton,Appleton,Estados Unidos,ATW,44.257526,-88.507576,18
979,979,Gulfport-Biloxi,Gulfport,Estados Unidos,GPT,30.407278,-89.070111,18
980,980,Evansville Regional,Evansville,Estados Unidos,EVV,38.036997,-87.532364,18
981,981,Mobile Rgnl,Móvel,Estados Unidos,MOB,30.691231,-88.242814,18
982,982,Four Corners Rgnl,Farmington,Estados Unidos,FMN,36.74125,-108.229944,18
983,983,Newport News Williamsburg Intl,Notícias de Newport,Estados Unidos,PHF,37.131894,-76.492989,18
984,984,Saarbrucken,Saarbrücken,Alemanha,SCN,49.214553,7.109508,18
985,985,Hobart,Hobart,Austrália,HBA,-42.836111,147.510278,18
986,986,Sibu,Sibu,Malásia,SBW,2.261603,111.985322,18
987,987,Trichy,Tiruchirappalli,Índia,TRZ,10.765364,78.709722,18
988,988,Chandigarh,Chandigarh,Índia,IXC,30.673469,76.788542,18
989,989,Amritsar,Amritsar,Índia,ATQ,31.709594,74.797264,18
990,990,Imphal,Impal,Índia,IMF,24.75995,93.896697,18
991,991,Syktyvkar,Syktyvkar,Rússia,SCW,61.64705,50.84505,18
992,992,Flamingo,Kralendijk,Antilhas Holandesas,BON,12.131044,-68.268511,18
993,993,Henry E Rohlsen,Ilha de Santa Cruz,Ilhas Virgens,STX,17.701889,-64.798556,18
994,994,Governador Jorge Teixeira De Oliveira,Porto Velho,Brasil,PVH,-8.709294,-63.902281,18
995,995,Ilheus,Ilhéus,Brasil,IOS,-14.815964,-39.033197,18
996,996,Puerto Princesa,Porto Princesa,Filipinas,PPS,9.742119,118.758731,18
997,997,Toyama,Toyama,Japão,TOY,36.648333,137.1875,18
998,998,Kumamoto,Kumamoto,Japão,KMJ,32.837319,130.85505,18
999,999,Oita,Oita,Japão,OIT,33.479444,131.737222,18
1000,1000,Annaba,Annaba,Argélia,AAE,36.822225,7.809167,18
1001,1001,Tabuk,Tabuque,Arábia Saudita,TUU,28.365417,36.618889,18
1002,1002,Exuma Intl,Grande Exuma,Bahamas,GGT,23.562631,-75.877958,18
1003,1003,Abel Santamaria,Santa Clara,Cuba,SNU,22.492192,-79.943611,18
1004,1004,Marcos A Gelabert Intl,Panamá,Panamá,PAC,8.973339,-79.555583,18
1005,1005,Ixtapa Zihuatanejo Intl,Zihuatanejo,México,ZIH,17.601569,-101.460536,18
1006,1006,Jesus Teran Intl,Aguascalientes,México,AGU,21.705558,-102.317858,18
1007,1007,Oguzeli,Gaziantep,Peru,GZT,36.947183,37.478683,18
1008,1008,Pescara,Pescara,Itália,PSR,42.431656,14.181067,18
1009,1009,Samos,Samos,Grécia,SMI,37.689999,26.911667,18
1010,1010,Vias,Béziers,França,BZR,43.323522,3.353903,18
1011,1011,Auvergne,Clermont-Ferrand,França,CFE,45.786661,3.169169,18
1012,1012,Granada,Granada,Espanha,GRX,37.188731,-3.777356,18
1013,1013,Varna,Varna,Bulgária,VAR,43.232072,27.825106,18
1014,1014,Belize City Municipal Airport,Belize,Belize,TZA,17.5344,-88.298,17
1015,1015,Vance Winkworth Amory International Airport,Charlestown,São Cristóvão e Nevis,NEV,17.205678,-62.589869,17
1016,1016,Midland Intl,Região Central,Estados Unidos,MAF,31.942528,-102.201914,17
1017,1017,Kodiak,Kodiak,Estados Unidos,ADQ,57.749967,-152.493856,17
1018,1018,Liege,Liège,Bélgica,LGG,50.637417,5.443222,17
1019,1019,Bhubaneshwar,Bhubaneswar,Índia,BBI,20.244364,85.817781,17
1020,1020,Mirny,Mirnyj,Rússia,MJZ,62.534689,114.038928,17
1021,1021,Queenstown,Internacional de Queenstown,Nova Zelândia,ZQN,-45.021111,168.739167,17
1022,1022,Magenta,Nouméa,Nova Caledônia,GEA,-22.258278,166.472806,17
1023,1023,General Juan N Alvarez Intl,Acapulco,México,ACA,16.757061,-99.753953,17
1024,1024,Pemba,Pemba,Moçambique,POL,-12.986753,40.522492,16
1025,1025,Comiso,Comiso,Itália,CIY,37.0,14.6144,16
1026,1026,Bijie Feixiong Airport,Bijie,China,BFJ,27.253,105.426,16
1027,1027,Sondre Stromfjord,Sondstrom,Groenlândia,SFJ,67.016969,-50.689325,16
1028,1028,Visby,Visby,Suécia,VBY,57.662797,18.346211,16
1029,1029,Umea,Umeá,Suécia,UME,63.791828,20.282758,16
1030,1030,Wuhai,Wuhai,China,WUA,39.794444,106.799444,16
1031,1031,Ain Arnat Airport,Sétif,Argélia,QSF,36.1781,5.32449,16
1032,1032,Qiqihar Sanjiazi Airport,Qiqihar,China,NDG,47.239628,123.918131,16
1033,1033,Guangyuan Airport,Guangyuan,China,GYS,32.3911,105.702,16
1034,1034,Nanyang Airport,Nanyang,China,NNY,32.9808,112.615,16
1035,1035,Changde Airport,Changde,China,CGD,28.9189,111.64,16
1036,1036,Nadym Airport,Nadim,Rússia,NYM,65.4809,72.6989,16
1037,1037,Khanty Mansiysk Airport,Khanty-Mansiysk,Rússia,HMA,61.028479,69.086067,16
1038,1038,Salekhard Airport,Salehard,Rússia,SLY,66.590753,66.611042,16
1039,1039,Tri Cities Airport,Pasco,Estados Unidos,PSC,46.2647,-119.119,16
1040,1040,Ust Kamenogorsk Airport,Ust-Kamenogorsk,Cazaquistão,UKK,50.0366,82.4942,16
1041,1041,Aarhus,Arhus,Dinamarca,AAR,56.300017,10.619008,16
1042,1042,Pierre Regional Airport,Pedro,Estados Unidos,PIR,44.3827,-100.286,16
1043,1043,Fayetteville Regional Grannis Field,Fayetteville,Estados Unidos,FAY,34.9912,-78.8803,16
1044,1044,Gheshm Airport,Gueshm,Irã,GSM,26.9487,56.2688,16
1045,1045,Red Lake Airport,Lago Vermelho,Canadá,YRL,51.0669,-93.7931,16
1046,1046,Inuvik Mike Zubko,Inuvik,Canadá,YEV,68.304167,-133.482778,16
1047,1047,Turku,Turku,Finlândia,TKU,60.514142,22.262808,16
1048,1048,Hammerfest Airport,Festival do Martelo,Noruega,HFT,70.679722,23.668889,16
1049,1049,Newcastle Airport,Newcastle,Austrália,NTL,-32.78,151.83,16
1050,1050,Cheddi Jagan Intl,Georgetown,Guiana,GEO,6.498553,-58.254119,16
1051,1051,Roberts Fld,Redmond-Bend,Estados Unidos,RDM,44.254066,-121.149964,16
1052,1052,Westerland Sylt,Terra Ocidental,Alemanha,GWT,54.91325,8.340472,16
1053,1053,Rapid City Regional Airport,Cidade rápida,Estados Unidos,RAP,44.045278,-103.057222,16
1054,1054,Grand Junction Regional,Grande Junção,Estados Unidos,GJT,39.122413,-108.526735,16
1055,1055,Gallatin Field,Bozeman,Estados Unidos,BZN,45.777643,-111.160151,16
1056,1056,Kopitnari,Kutaisi,Geórgia,KUT,42.176653,42.482583,16
1057,1057,Santa Barbara Muni,Santa Barbara,Estados Unidos,SBA,34.426211,-119.840372,16
1058,1058,Adi Sumarmo Wiryokusumo,Cidade Solo,Indonésia,SOC,-7.516089,110.756892,16
1059,1059,Baton Rouge Metro Ryan Fld,Baton Rouge,Estados Unidos,BTR,30.533167,-91.149639,16
1060,1060,Austin Straubel Intl,Baía Verde,Estados Unidos,GRB,44.485072,-88.129589,16
1061,1061,Shreveport Rgnl,Shreveport,Estados Unidos,SHV,32.446629,-93.8256,16
1062,1062,Capital City,Lansing,Estados Unidos,LAN,42.7787,-84.587357,16
1063,1063,Bangor Intl,Bangor,Estados Unidos,BGR,44.807444,-68.828139,16
1064,1064,Port Hedland Intl,Porto Hedland,Austrália,PHE,-20.377778,118.626389,16
1065,1065,Kununurra,Kununurra,Austrália,KNX,-15.778056,128.7075,16
1066,1066,Launceston,Launceston,Austrália,LST,-41.545278,147.214167,16
1067,1067,Jefman,Sorong,Indonésia,SOQ,-0.926358,131.121194,16
1068,1068,Sultan Babullah,Ternate,Indonésia,TTE,0.831414,127.381486,16
1069,1069,Heho,Ei,Birmânia,HEH,20.747036,96.792044,16
1070,1070,Madurai,Madurai,Índia,IXM,9.834508,78.093378,16
1071,1071,Agartala,Agartala,Índia,IXA,23.886978,91.24045,16
1072,1072,Chertovitskoye,Voronej,Rússia,VOZ,51.814211,39.229589,16
1073,1073,Astrakhan,Astracã,Rússia,ASF,46.283333,48.006278,16
1074,1074,Tte Av Jorge Henrich Arauz,Trindade,Bolívia,TDD,-14.818739,-64.918019,16
1075,1075,Capitan Oriel Lea Plaza,Tarija,Bolívia,TJA,-21.555736,-64.701325,16
1076,1076,Vanguardia,Villavicencio,Colômbia,VVC,4.167875,-73.613761,16
1077,1077,Port Harcourt Intl,Porto Hartcourt,Nigéria,PHC,5.015494,6.949594,16
1078,1078,Sao Jose Do Rio Preto,São José do Rio Preto,Brasil,SJP,-20.816567,-49.406511,16
1079,1079,Akita,Akita,Japão,AXT,39.615556,140.218611,16
1080,1080,Takamatsu,Takamatsu,Japão,TAK,34.214167,134.015556,16
1081,1081,Yonago Kitaro,Miho,Japão,YGJ,35.492222,133.236389,16
1082,1082,Basrah Intl,Basrá,Iraque,BSR,30.549069,47.662142,16
1083,1083,Madang,Madang,Papua Nova Guiné,MAG,-5.207083,145.7887,16
1084,1084,North Eleuthera,Eleutera do Norte,Bahamas,ELH,25.474861,-76.683489,16
1085,1085,Mont Joli,Monte Joli,Canadá,YYY,48.608612,-68.208056,16
1086,1086,Churchill,Churchill,Canadá,YYQ,58.739167,-94.065,16
1087,1087,Angel Albino Corzo,Tuxtla Gutiérrez,México,TGZ,16.561822,-93.026081,16
1088,1088,Ponciano Arriaga Intl,São Luis Potosí,México,SLP,22.254303,-100.930806,16
1089,1089,General Lucio Blanco Intl,Reynosa,México,REX,26.008908,-98.228513,16
1090,1090,Innsbruck,Insbruck,Áustria,INN,47.260219,11.343964,16
1091,1091,Zaragoza Ab,Saragoça,Espanha,ZAZ,41.666242,-1.041553,16
1092,1092,La Palma,Santa Cruz De La Palma,Espanha,SPC,28.626478,-17.755611,16
1093,1093,Kronoberg,Vaxjo,Suécia,VXO,56.929144,14.727994,15
1094,1094,Kvernberget,Kristiansund,Noruega,KSU,63.111781,7.824522,15
1095,1095,Urgench Airport,Urgência,Uzbequistão,UGC,41.5843,60.6417,15
1096,1096,Deer Lake,Lago dos Cervos,Canadá,YDF,49.210833,-57.391388,15
1097,1097,Asmara Intl,Asmara,Eritreia,ASM,15.291853,38.910667,15
1098,1098,Valley Intl,Harlingen,Estados Unidos,HRL,26.2285,-97.654389,15
1099,1099,Mutiara,Palu,Indonésia,PLW,-0.918542,119.909642,15
1100,1100,Orenburg,Oremburgo,Rússia,REN,51.795786,55.456744,15
1101,1101,Samarkand,Samarcanda,Uzbequistão,SKD,39.700547,66.983829,15
1102,1102,Goloson Intl,La Ceiba,Honduras,LCE,15.742481,-86.853036,15
1103,1103,Erkilet,Caiseri,Peru,ASR,38.770386,35.495428,15
1104,1104,Berbera,Berbera,Somália,BBO,10.389167,44.941106,15
1105,1105,Egal Intl,Hargeisa,Somália,HGA,9.518167,44.088758,15
1106,1106,Tete Chingodzi,Tete,Moçambique,TET,-16.104817,33.640181,14
1107,1107,Beira,Beira,Moçambique,BEW,-19.796419,34.907556,14
1108,1108,Livingstone,Livingstone,Zâmbia,LVI,-17.821756,25.822692,14
1109,1109,Maun,Maun,Botsuana,MUB,-19.972564,23.431086,14
1110,1110,Zhoubai,Qianjiang,China,JIQ,29.515,108.83,14
1111,1111,Uummannaq Heliport,Uummannaq,Groenlândia,UMD,70.4047,52.0702,14
1112,1112,Panama City-NW Florida Bea.,cidade do Panamá,Estados Unidos,ECP,30.3417,-85.7973,14
1113,1113,Dangriga Airport,Dangriga,Belize,DGA,16.966667,-88.216667,14
1114,1114,Begishevo,Nijnekamsk,Rússia,NBC,55.34,52.06,14
1115,1115,Goleniow,Estetino,Polônia,SZZ,53.584731,14.902206,14
1116,1116,Aro,Molde,Noruega,MOL,62.744722,7.2625,14
1117,1117,Jiayuguan Airport,Jiayuguan,China,JGN,39.8569,98.3414,14
1118,1118,Shanhaiguan Airport,Qinhuangdao,China,SHP,39.9681,119.731,14
1119,1119,Anqing Airport,Anqing,China,AQG,30.5822,117.0502,14
1120,1120,Weifang Airport,Weifang,China,WEF,36.6467,119.119,14
1121,1121,Diqing Airport,Shangri-La,China,DIG,27.7936,99.6772,14
1122,1122,Xilinhot Airport,Xilinhot,China,XIL,43.9156,115.964,14
1123,1123,Ulanhot Airport,Ulanhot,China,HLH,46.083,122.017,14
1124,1124,Hamilton Island Airport,Ilha Hamilton,Austrália,HTI,-20.3581,148.952,14
1125,1125,Vinh Airport,Vinh,Vietnã,VII,18.737569,105.670764,14
1126,1126,Cam Ranh Airport,Nha Trang,Vietnã,CXR,11.998153,109.219372,14
1127,1127,Buon Ma Thuot Airport,Buonmethuot,Vietnã,BMV,12.668311,108.120272,14
1128,1128,Fergana Airport,Fergana,Uzbequistão,FEG,40.3588,71.745,14
1129,1129,Cherepovets Airport,Tcherepovets,Rússia,CEE,59.2736,38.0158,14
1130,1130,Cayo Coco Airport,Cayo Coco,Cuba,CCC,22.5132,-78.511,14
1131,1131,Osvaldo Vieira International Airport,Bissau,Guiné-Bissau,OXB,11.89485,-15.653681,14
1132,1132,Kuujjuarapik Airport,Kuujjuarapik,Canadá,YGW,55.2819,-77.7653,14
1133,1133,Qaqortoq Heliport,Qaqortoq,Groenlândia,JJU,60.7158,-46.0294,14
1134,1134,Arviat,Ponto Esquimó,Canadá,YEK,61.094166,-94.070833,14
1135,1135,Albert J Ellis,"Jacksonville, Carolina do Norte",Estados Unidos,OAJ,34.829164,-77.612139,14
1136,1136,Sary-Arka,Karaganda,Cazaquistão,KGF,49.670833,73.334444,14
1137,1137,Airport,Vadso,Noruega,VDS,70.065,29.844,14
1138,1138,Woerthersee International Airport,Klagenfurt,Áustria,KLU,46.642514,14.337739,14
1139,1139,Dunhuang Airport,Dunhuang,China,DNH,40.094,94.4818,14
1140,1140,Santa Cruz,Santa Cruz,Bolívia,SRZ,-17.8,-63.166667,14
1141,1141,Missoula Intl,Missoula,Estados Unidos,MSO,46.916306,-114.090556,14
1142,1142,Palmas,Palmas,Brasil,PMW,-10.241667,-48.35278,14
1143,1143,Tri-Cities Regional Airport,BRISTOL,Estados Unidos,TRI,36.4752222,-82.4074167,14
1144,1144,Montgomery Regional Airport ,MONTGOMERIA,Estados Unidos,MGM,32.3006389,-86.3939722,14
1145,1145,Dali,Dalí,China,DLU,25.649444,100.319444,14
1146,1146,Taiz Intl,Taiz,Iémen,TAI,13.685964,44.139056,14
1147,1147,Juwata,Taraken,Indonésia,TRK,3.326694,117.565569,14
1148,1148,Iskandar,Pão Pangkalan,Indonésia,PKN,-2.705197,111.673208,14
1149,1149,Depati Amir,Pangkal Pinang,Indonésia,PGK,-2.1622,106.139064,14
1150,1150,Great Falls Intl,Grandes quedas,Estados Unidos,GTF,47.482,-111.370689,14
1151,1151,King Salmon,Salmão Rei,Estados Unidos,AKN,58.676778,-156.649278,14
1152,1152,Plattsburgh Intl,Plattsburgh,Estados Unidos,PBG,44.650944,-73.468139,14
1153,1153,Edward G Pitka Sr,Galena,Estados Unidos,GAL,64.736178,-156.937417,14
1154,1154,Augusta Rgnl At Bush Fld,Campo de arbusto,Estados Unidos,AGS,33.369944,-81.9645,14
1155,1155,Karratha,Karratha,Austrália,KTA,-20.712222,116.773333,14
1156,1156,Mackay,Mackay,Austrália,MKY,-21.171667,149.179722,14
1157,1157,Sultan Mahmud,Kuala Terengganu,Malásia,TGG,5.382639,103.10336,14
1158,1158,Minangkabau,Padang,Indonésia,PDG,-0.8749889999999999,100.351881,14
1159,1159,Tawau,Tawau,Malásia,TWU,4.313369,118.121953,14
1160,1160,Bintulu,Bintulu,Malásia,BTU,3.12385,113.020472,14
1161,1161,Rendani,Manokwari,Indonésia,MKW,-0.891833,134.049183,14
1162,1162,Silchar,Silchar,Índia,IXS,24.912928,92.978742,14
1163,1163,Udaipur,Udaipur,Índia,UDR,24.617697,73.8961,14
1164,1164,Bhopal,Bhopal,Índia,BHO,23.287467,77.337375,14
1165,1165,Murmansk,Murmansk,Rússia,MMK,68.781672,32.750822,14
1166,1166,Simferopol Intl,Simferopol,Ucrânia,SIP,45.052222,33.975139,14
1167,1167,Aktyubinsk,Aktyubinsk,Cazaquistão,AKX,50.245833,57.206667,14
1168,1168,Coronel Francisco Secada Vignetta Intl,Iquitos,Peru,IQT,-3.784739,-73.308806,14
1169,1169,Rochambeau,Pimenta de caiena,Guiana Francesa,CAY,4.819808,-52.360447,14
1170,1170,Mallam Aminu Intl,Kano,Nigéria,KAN,12.047589,8.524622,14
1171,1171,La Florida,La Serena,Chile,LSC,-29.916233,-71.199522,14
1172,1172,Ministro Victor Konder Intl,Navegantes,Brasil,NVT,-26.879999,-48.65139,14
1173,1173,Prefeito Renato Moreira,Imperatriz,Brasil,IMP,-5.531292,-47.46005,14
1174,1174,San Carlos De Bariloche,São Carlos De Bariloche,Argentina,BRC,-41.151172,-71.157542,14
1175,1175,Comodoro Rivadavia,Comodoro Rivadavia,Argentina,CRD,-45.785347,-67.465508,14
1176,1176,Rosario,Rosário,Argentina,ROS,-32.903611,-60.785,14
1177,1177,Cagayan De Oro,Ladag,Filipinas,CGY,8.415619,124.611219,14
1178,1178,Asahikawa,Asahikawa,Japão,AKJ,43.670833,142.4475,14
1179,1179,Salalah,Salalá,Omã,SLL,17.038719,54.091297,14
1180,1180,Yazd Shahid Sadooghi,Yazd,Irã,AZD,31.904908,54.276503,14
1181,1181,Playa De Oro Intl,Manzanillo,México,ZLO,19.144778,-104.558631,14
1182,1182,General Leobardo C Ruiz Intl,Zacatecas,México,ZCL,22.897112,-102.68689,14
1183,1183,General Francisco Javier Mina Intl,Tampico,México,TAM,22.29645,-97.865931,14
1184,1184,Queretaro Intercontinental,Querétaro,México,QRO,20.617289,-100.185658,14
1185,1185,Hermanos Serdan Intl,Puebla,México,PBC,19.158144,-98.371447,14
1186,1186,Diyarbakir,Diyabakir,Peru,DIY,37.893897,40.201019,14
1187,1187,Val D Or,Val D’or,Canadá,YVO,48.053333,-77.782778,14
1188,1188,Biard,Poitiers,França,PIS,46.587745,0.306666,14
1189,1189,Rijeka,Rijeka,Croácia,RJK,45.216889,14.570267,14
1190,1190,Comox,Comox,Canadá,YQQ,49.710833,-124.886667,14
1191,1191,Victoria Falls Intl,Cataratas Vitória,Zimbábue,VFA,-18.095881,25.839006,14
1192,1192,Toamasina,Toamasina,Madagáscar,TMM,-18.109517,49.392536,13
1193,1193,Mattala Rajapaksa Intl.,Mattala,Sri Lanka,HRI,6.284467,81.124128,13
1194,1194,Kulob Airport,Kulyab,Tadjiquistão,TJU,37.981667,69.799444,13
1195,1195,Placencia Airport,Placencia,Belize,PLJ,16.536944,-88.361667,13
1196,1196,Hoybuktmoen,Kirkenes,Noruega,KKN,69.725781,29.891295,13
1197,1197,Eelde,Groninga,Holanda,GRQ,53.11972,6.579444,13
1198,1198,Bagan Intl,Nyuang U,Birmânia,NYU,21.173833266,94.9246666,13
1199,1199,Wiley Post Will Rogers Mem,Carrinho de mão,Estados Unidos,BRW,71.285446,-156.766003,13
1200,1200,Fort Yukon,Fort Yukon,Estados Unidos,FYU,66.571492,-145.250417,13
1201,1201,Bukhara,Bucara,Uzbequistão,BHK,39.775,64.483333,13
1202,1202,Juliaca,Juliaca,Peru,JUL,-15.467103,-70.158169,13
1203,1203,Carlos Ibanez Del Campo Intl,Punta Arenas,Chile,PUQ,-53.002642,-70.854586,13
1204,1204,El Loa,Calama,Chile,CJC,-22.498175,-68.903575,13
1205,1205,Karpathos,Cárpatos,Grécia,AOK,35.421408,27.146008,13
1206,1206,Kefallinia,Kefalinia,Grécia,EFL,38.120069,20.500481,13
1207,1207,Thompson,Thompson,Canadá,YTH,55.801111,-97.864166,13
1208,1208,Natashquan,Natashquan,Canadá,YNA,50.19,-61.789167,12
1209,1209,Yichun Mingyueshan Airport,Yichun,China,YIC,27.8033,114.3081,12
1210,1210,Lensk,Lensk,Rússia,ULK,60.723,114.825,12
1211,1211,Sannvhe,Tangshan,China,TVS,39.717444,118.002389,12
1212,1212,Lublin,Lublin,Polônia,LUZ,51.239333,22.714083,12
1213,1213,Jixi Airport,Jixi,China,JXA,45.30611,130.99667,12
1214,1214,Hebei Handan Airport,Handan,China,HDG,36.524,114.43,12
1215,1215,Gazipasa Airport,Alania,Peru,GZP,36.2993,32.3014,12
1216,1216,Xingyi Airport,Xing Yi,China,ACX,25.0882,104.9587,12
1217,1217,Barreiras Airport,Barreiras,Brasil,BRA,-12.083333,-45.0,12
1218,1218,Kallax,Luléa,Suécia,LLA,65.543758,22.121989,12
1219,1219,Stebbins Airport,Stebbins,Estados Unidos,WBB,63.515833,-162.278056,12
1220,1220,Gallivare,Galivare,Suécia,GEV,67.132408,20.814636,12
1221,1221,Show Low Regional Airport,Mostrar baixo,Estados Unidos,SOW,34.265556,-110.005556,12
1222,1222,San Luis Valley Regional Airport,Alamosa,Estados Unidos,ALS,37.435,-105.866667,12
1223,1223,Charles M Schulz Sonoma Co,Santa Rosa,Estados Unidos,STS,38.508978,-122.81288,12
1224,1224,Vieques Airport,Ilha Vieques,Porto Rico,VQS,18.1158,-65.4227,12
1225,1225,Gorgan Airport,Gorgan,Irã,GBT,36.909381,54.401339,12
1226,1226,Navoi Airport,Navoi,Uzbequistão,NVI,40.1172,65.1708,12
1227,1227,Dibrugarh Airport,Dibrugarh,Índia,DIB,27.4839,95.0169,12
1228,1228,Nanchong Airport,Nanchong,China,NAO,30.754,106.062,12
1229,1229,Quzhou Airport,Quzhou,China,JUZ,28.9658,118.899,12
1230,1230,Jiujiang Lushan Airport,Jiujiang,China,JIU,29.733,115.983,12
1231,1231,Mangshi Airport,Luxi,China,LUM,24.4011,98.5317,12
1232,1232,Qingyang Airport,Qingyang,China,IQN,35.7997,107.603,12
1233,1233,Port Macquarie Airport,Porto Macquarie,Austrália,PQQ,-31.4358,152.863,12
1234,1234,Mildura Airport,Mildura,Austrália,MQL,-34.2292,142.086,12
1235,1235,Vitória da Conquista Airport,Vitória da Conquista,Brasil,VDC,-14.862761,-40.863106,12
1236,1236,Kerry,Kerry,Irlanda,KIR,52.180878,-9.523783,12
1237,1237,Wewak Intl,Wewak,Papua Nova Guiné,WWK,-3.583828,143.669186,12
1238,1238,Nagoya Airport,Nagoya,Japão,NKM,35.255,136.924,12
1239,1239,McGrath Airport,McGrath,Estados Unidos,MCG,62.9529,-155.606,12
1240,1240,Lar Airport,Lar,Irã,LRR,27.674725,54.383278,12
1241,1241,Sari Dasht E Naz Airport,Dasht-e-naz,Irã,SRY,36.635833,53.193611,12
1242,1242,Samaná El Catey International Airport,Samaná,República Dominicana,AZS,19.267,-69.742,12
1243,1243,Asyut International Airport,Assiut,Egito,ATZ,27.046508,31.011983,12
1244,1244,Ondjiva Pereira Airport,Ondjiva,Angola,VPE,-17.043464,15.683822,12
1245,1245,Waskaganish Airport,Waskaganish,Canadá,YKQ,51.4733,-78.7583,12
1246,1246,Chesterfield Inlet Airport,Entrada de Chesterfield,Canadá,YCS,63.3469,-90.7311,12
1247,1247,Caye Caulker Airport,Caye Caulker,Belize,CUK,17.7347,-88.0325,12
1248,1248,Kimbe Airport,Hoskins,Papua Nova Guiné,HKN,-5.46217,150.405,12
1249,1249,St Mawgan,Newquai,Reino Unido,NQY,50.440558,-4.995408,12
1250,1250,Marsa Alam Intl,Marsa Alam,Egito,RMF,25.557111,34.583711,12
1251,1251,Kalymnos Island,Calímnos,Grécia,JKL,36.963333,26.940556,12
1252,1252,Muan,Muan,Coreia do Sul,MWX,34.991389,126.382778,12
1253,1253,Dongying Airport,Dongying,China,DOY,37.2716,118.2819,12
1254,1254,Sandakan,Sandakan,Malásia,SDK,5.900897,118.059486,12
1255,1255,Page Municipal Airport,Página,Estados Unidos,PGA,36.9261,-111.4483,12
1256,1256,Bismarck Municipal Airport,Bismarck,Estados Unidos,BIS,46.775842,-100.757931,12
1257,1257,Mulu,Mulu,Malásia,MZV,4.048333,114.805,12
1258,1258,Kalamazoo,Kalamazoo,Estados Unidos,AZO,42.234875,-85.552058,12
1259,1259,Batumi,Batumi,Geórgia,BUS,41.610278,41.599694,12
1260,1260,Elmira Corning Rgnl,Elmira,Estados Unidos,ELM,42.159889,-76.891611,12
1261,1261,New Castle,Wilmington,Estados Unidos,ILG,39.678722,-75.606528,12
1262,1262,Alexandria Intl,Alexandria,Estados Unidos,AEX,31.3274,-92.549833,12
1263,1263,Mc Allen Miller Intl,Mc Allen,Estados Unidos,MFE,26.175833,-98.238611,12
1264,1264,Cheyenne Rgnl Jerry Olson Fld,Cheyenne,Estados Unidos,CYS,41.155722,-104.811839,12
1265,1265,Santa Fe Muni,Santa Fé,Estados Unidos,SAF,35.617108,-106.089422,12
1266,1266,Robert Gray Aaf,Killeen,Estados Unidos,GRK,31.06725,-97.828917,12
1267,1267,Monroe Rgnl,Monroe,Estados Unidos,MLU,32.510864,-92.037689,12
1268,1268,Stewart Intl,Newburgh,Estados Unidos,SWF,41.504094,-74.104839,12
1269,1269,Meadows Fld,Bakersfield,Estados Unidos,BFL,35.433598,-119.05677,12
1270,1270,Nantucket Mem,Nantucket,Estados Unidos,ACK,41.253053,-70.060181,12
1271,1271,Lafayette Rgnl,Lafayette,Estados Unidos,LFT,30.205278,-91.987611,12
1272,1272,Hotan,Hotan,China,HTN,37.038522,79.864933,12
1273,1273,Erfurt,Erfurt,Alemanha,ERF,50.979811,10.958106,12
1274,1274,Sultan Thaha,Jambi,Indonésia,DJB,-1.638017,103.644378,12
1275,1275,Supadio,Pontianak,Indonésia,PNK,-0.1507109999999999,109.403892,12
1276,1276,Marudi,Marudi,Malásia,MUR,4.1775,114.321944,12
1277,1277,Cambridge Bay,Baía de Cambridge,Canadá,YCB,69.108055,-105.138333,12
1278,1278,Udon Thani,Udon Thani,Tailândia,UTH,17.386436,102.788247,12
1279,1279,Hat Yai Intl,Chapéu Yai,Tailândia,HDY,6.933206,100.392975,12
1280,1280,Leh,Leh,Índia,IXL,34.135872,77.546514,12
1281,1281,Jodhpur,Jodhpur,Índia,JDH,26.251092,73.048869,12
1282,1282,Aizawl,Aizwal,Índia,AJL,23.746603,92.802767,12
1283,1283,Campbell River,Rio Campbell,Canadá,YBL,49.950832,-125.270833,12
1284,1284,Bolshoye Savino,Permanente,Rússia,PEE,57.914517,56.021214,12
1285,1285,Yelizovo,Petropavlovsk,Rússia,PKC,53.167889,158.453669,12
1286,1286,Sokol,Magadan,Rússia,GDX,59.910989,150.720439,12
1287,1287,Wallblake,O Vale,Anguila,AXA,18.204834,-63.055084,12
1288,1288,Baker Lake,Lago Baker,Canadá,YBK,64.298889,-96.077778,12
1289,1289,Cadete Guillermo Del Castillo Paredes,Tarapoto,Peru,TPP,-6.508742,-76.373247,12
1290,1290,Cap Fap David Abenzur Rengifo Intl,Pucallpa,Peru,PCL,-8.377939,-74.574297,12
1291,1291,Juana Azurduy De Padilla,Sucre,Bolívia,SRE,-19.007083,-65.288747,12
1292,1292,El Carano,Quibdô,Colômbia,UIB,5.690758,-76.641181,12
1293,1293,Matecana,Pereira,Colômbia,PEI,4.812675,-75.739519,12
1294,1294,Alfredo Vasquez Cobo,Leticia,Colômbia,LET,-4.193549,-69.943163,12
1295,1295,Baie Comeau,Baie Comeau,Canadá,YBC,49.1325,-68.204444,12
1296,1296,Presidente Peron,Neuquén,Argentina,NQN,-38.949,-68.155711,12
1297,1297,Salta,Salta,Argentina,SLA,-24.855978,-65.486169,12
1298,1298,Bacolod,Bacólod,Filipinas,BCD,10.642511,122.929617,12
1299,1299,Zamboanga Intl,Zamboanga,Filipinas,ZAM,6.922419,122.059633,12
1300,1300,Daegu Ab,Taegu,Coreia do Sul,TAE,35.894108,128.658856,12
1301,1301,Oued Irara,Hassi Messaoud,Argélia,HME,31.672972,6.140444,12
1302,1302,Zenata,Tlemcen,Argélia,TLM,35.016667,-1.45,12
1303,1303,Memanbetsu,Memanbetsu,Japão,MMB,43.880606,144.164053,12
1304,1304,Chah Bahar,Chah Bahar,Irã,ZBR,25.44335,60.382114,12
1305,1305,Shahid Ashrafi Esfahani,Bakhtaran,Irã,KSH,34.345853,47.158128,12
1306,1306,Abadan,Abadan,Irã,ABD,30.371111,48.228333,12
1307,1307,Soummam,Bejajá,Argélia,BJA,36.711997,5.069922,12
1308,1308,King Abdullah Bin Abdulaziz,Gizan,Arábia Saudita,GIZ,16.901111,42.585833,12
1309,1309,Herat,Herat,Afeganistão,HEA,34.210017,62.2283,12
1310,1310,Bora Bora,Bora Bora,Polinésia Francesa,BOB,-16.444378,-151.751286,12
1311,1311,Tajin,Poza Rico,México,PAZ,20.602671,-97.460839,12
1312,1312,Xoxocotlan Intl,Oaxaca,México,OAX,16.999906,-96.726639,12
1313,1313,London,Londres,Canadá,YXU,43.033056,-81.151111,12
1314,1314,Gibraltar,Gibraltar,Gibraltar,GIB,36.151219,-5.349664,12
1315,1315,Elazig,Elazig,Peru,EZS,38.606925,39.291417,12
1316,1316,Fort St John,Forte São João,Canadá,YXJ,56.238056,-120.740278,12
1317,1317,Horta,Horta,Portugal,HOR,38.519894,-28.715872,12
1318,1318,Norman Wells,Norman Wells,Canadá,YVQ,65.281617,-126.798219,12
1319,1319,Reggio Calabria,Régio da Calábria,Itália,REG,38.071206,15.651556,12
1320,1320,Leros,Leros,Grécia,LRS,37.184903,26.800289,12
1321,1321,Megas Alexandros Intl,Cavala,Grécia,KVA,40.913306,24.619223,12
1322,1322,Chios,Quios,Grécia,JKH,38.343175,26.140572,12
1323,1323,Mwanza,Muanza,Tanzânia,MWZ,-2.444486,32.932667,12
1324,1324,Wajir,Wajir,Quênia,WJR,1.733239,40.091606,12
1325,1325,Sao Pedro,Ilha de São Vicente,cabo Verde,VXE,16.833689,-25.054661,12
1326,1326,Shaktoolik Airport,Shaktoolik,Estados Unidos,SKK,64.371111,-161.223889,11
1327,1327,Zweibruecken,Zweibrücken,Alemanha,ZQW,49.209445,7.401323,11
1328,1328,Aksu Airport,Aksu,China,AKU,41.2625,80.2917,11
1329,1329,Yan'an Airport,Yan'an,China,ENY,36.6369,109.554,11
1330,1330,Radin Inten II (Branti) Airport,Ilha Bandar Lampung-Sumatra,Indonésia,TKG,-5.242339,105.178939,11
1331,1331,Turbat International Airport,Turbat,Paquistão,TUK,25.986369,63.030167,11
1332,1332,Bahawalpur Airport,Bahawalpur,Paquistão,BHV,29.3481,71.717981,11
1333,1333,Whale Cove Airport,Enseada das Baleias,Canadá,YXN,62.24,-92.5981,11
1334,1334,Gurney Airport,Maca,Papua Nova Guiné,GUR,-10.3115,150.334,11
1335,1335,Fairmont Hot Springs,Porto de Coral,Canadá,YZS,64.193333,-83.359444,11
1336,1336,Deadhorse,Cavalo morto,Estados Unidos,SCC,70.19475,-148.465167,11
1337,1337,Carriel Sur Intl,Conceição,Chile,CCP,-36.77265,-73.063106,11
1338,1338,Rio Gallegos,Rio Gallegos,Argentina,RGL,-51.608875,-69.312636,11
1339,1339,Almirante Zar,Trelew,Argentina,REL,-43.2105,-65.270319,11
1340,1340,Ouargla,Ouargla,Argélia,OGX,31.917223,5.412778,11
1341,1341,Touat Cheikh Sidi Mohamed Belkebir,Adrar,Argélia,AZR,27.837589,-0.186414,11
1342,1342,Sukkur,Sucur,Paquistão,SKZ,27.721989,68.791683,11
1343,1343,Rangiroa,Rangiroa,Polinésia Francesa,RGI,-14.954283,-147.6608,11
1344,1344,Faleolo Intl,Faleolo,Samoa,APW,-13.829969,-172.008336,11
1345,1345,Antonio Maceo Intl,Santiago de Cuba,Cuba,SCU,19.969769,-75.835414,11
1346,1346,Kosice,Košice,Eslováquia,KSC,48.663055,21.241112,11
1347,1347,Timmins,Timmins,Canadá,YTS,48.569721,-81.376667,11
1348,1348,Sudbury,Sudbury,Canadá,YSB,46.625,-80.798889,11
1349,1349,La Roche,Brive,França,BVE,45.150833,1.469167,11
1350,1350,Arrachart,Antsiranana,Madagáscar,DIE,-12.3494,49.291747,10
1351,1351,Sanliurfa GAP,Sanliurfa,Peru,GNY,37.45,38.9,10
1352,1352,Changbaishan Airport,Baishan,China,NBS,42.088056,127.548889,10
1353,1353,Bayannur,Bayan Nur,China,RLK,40.926389,107.738889,10
1354,1354,Hector Silva Airstrip,Belmopán,Belize,BCV,17.269444,-88.776111,10
1355,1355,George,Jorge,África do Sul,GRJ,-34.005553,22.378889,10
1356,1356,East London,Leste de Londres,África do Sul,ELS,-33.035569,27.825939,10
1357,1357,Schefferville,Schefferville,Canadá,YKL,54.805278,-66.805278,10
1358,1358,Tengchong Tuofeng Airport,Tengchong,China,TCZ,24.938651,98.483591,10
1359,1359,Kamloops,Kamloops,Canadá,YKA,50.702222,-120.444444,10
1360,1360,Laage,Laage,Alemanha,RLG,53.918167,12.278333,10
1361,1361,Tasiilaq,Angmagssalik,Groenlândia,AGM,65.612222,-37.618333,10
1362,1362,Persian Gulf Airport,Khalije Fars,Irã,PGU,27.379444,52.7375,10
1363,1363,Sundsvall Harnosand,Sundsvall,Suécia,SDL,62.528125,17.443928,10
1364,1364,Koyuk Alfred Adams Airport,Koyuk,Estados Unidos,KKA,64.939444,-161.154167,10
1365,1365,Hollis Seaplane Base,Hollis,Estados Unidos,HYL,55.481667,-132.646111,10
1366,1366,Craig Seaplane Base,Craig,Estados Unidos,CGA,55.478889,-133.147778,10
1367,1367,Halmstad,Halmstad,Suécia,HAD,56.691128,12.820211,10
1368,1368,Narsarsuaq,Narssarssuaq,Groenlândia,UAK,61.160517,-45.425978,10
1369,1369,Tongren,Tongren,China,TEN,27.884,109.31,10
1370,1370,Mardin Airport,Mardín,Peru,MQM,37.2233,40.6317,10
1371,1371,St Marys Airport,Santa Maria,Estados Unidos,KSM,62.0605,-163.302,10
1372,1372,Dandong,Dandong,China,DDG,40.0255,124.2866,10
1373,1373,Jinzhou Airport,Jinzhou,China,JNZ,41.1014,121.062,10
1374,1374,Nyingchi Airport,Nyingchi,China,LZY,29.3033,94.3353,10
1375,1375,Meixian Airport,Meixian,China,MXZ,24.35,116.133,10
1376,1376,Bronnoy,Bronnoysund,Noruega,BNN,65.461111,12.2175,10
1377,1377,Gove Airport,Gove,Austrália,GOV,-12.2694,136.818,10
1378,1378,Cloncurry Airport,Cloncurry,Austrália,CNJ,-20.6686,140.504,10
1379,1379,Karshi Khanabad Airport,Khanabad,Uzbequistão,KSQ,38.8336,65.9215,10
1380,1380,Sovetsky Tyumenskaya Airport,Soviético,Rússia,OVS,61.32,63.6044,10
1381,1381,Poliarny Airport,Iacútia,Rússia,PYJ,66.400431,112.030325,10
1382,1382,Orlando Bezerra de Menezes Airport,Juazeiro do Norte,Brasil,JDO,-7.218958,-39.2701,10
1383,1383,General Santos International Airport,General Santos Cidade,Filipinas,GES,6.106439,125.2353,10
1384,1384,Kushiro Airport,Kushiro,Japão,KUH,43.041,144.193,10
1385,1385,Sayun International Airport,Internacional de Sayun,Iémen,GXF,15.966111,48.7883,10
1386,1386,Norsup Airport,Norsup,Vanuatu,NUS,-16.0797,167.401,10
1387,1387,Tri State Milton J Ferguson Field,Huntington,Estados Unidos,HTS,38.3667,-82.558,10
1388,1388,Dodge City Regional Airport,Cidade de esquiva,Estados Unidos,DDC,37.7634,-99.9656,10
1389,1389,Port Sudan New International Airport,Porto Sudão,Sudão,PZU,19.4336,37.2341,10
1390,1390,Malindi Airport,Melinde,Quênia,MYD,-3.22931,40.1017,10
1391,1391,Heringsdorf Airport,Heringsdorf,Alemanha,HDF,53.878706,14.152347,10
1392,1392,The Pas Airport,O Pas,Canadá,YQD,53.9714,-101.091,10
1393,1393,Igloolik Airport,Iglulik,Canadá,YGT,69.3647,-81.8161,10
1394,1394,Momote Airport,Momote,Papua Nova Guiné,MAS,-2.06189,147.424,10
1395,1395,Girua Airport,Giruá,Papua Nova Guiné,PNP,-8.80454,148.309,10
1396,1396,Stornoway,Stornoway,Reino Unido,SYY,58.215556,-6.331111,10
1397,1397,Sumburgh,Sumburgh,Reino Unido,LSI,59.878889,-1.295556,10
1398,1398,Humberside,Humberside,Reino Unido,HUY,53.574444,-0.350833,10
1399,1399,City of Derry,Londresderry,Reino Unido,LDY,55.042778,-7.161111,10
1400,1400,Vaasa,Vaasa,Finlândia,VAA,63.05065,21.762175,10
1401,1401,Noyabrsk,Noiabrsk,Rússia,NOJ,63.110079,75.162243,10
1402,1402,Central,Saratov,Rússia,RTW,51.334366,46.022952,10
1403,1403,Liberal Muni,Liberal,Estados Unidos,LBL,37.044222,-100.95986,10
1404,1404,Mehamn,Mehamn,Noruega,MEH,71.029722,27.826667,10
1405,1405,University Park Airport,Faculdade Estadual da Pensilvânia,Estados Unidos,SCE,40.849278,-77.848694,10
1406,1406,Tomsk Bogashevo Airport,Tomsk,Rússia,TOF,56.380278,85.208333,10
1407,1407,Ballina Byron Gateway,Ballina Byron Bay,Austrália,BNK,-28.833889,153.5625,10
1408,1408,Kulusuk,Kulusuk,Groenlândia,KUS,65.566667,-37.1166667,10
1409,1409,Tanna island,Tanna,Vanuatu,TAH,-19.455198,169.22394,10
1410,1410,Duong Dong Airport,Phu Quoc,Vietnã,PQC,10.227025,103.967169,10
1411,1411,Dalat,Dalat,Vietnã,DLI,11.75,108.367,10
1412,1412,Mbs Intl,Saginaw,Estados Unidos,MBS,43.532913,-84.079647,10
1413,1413,Glacier Park Intl,Kalispell,Estados Unidos,FCA,48.310472,-114.256,10
1414,1414,Central Wisconsin,Wassau,Estados Unidos,CWA,44.772726,-89.646635,10
1415,1415,Toledo,Toledo,Estados Unidos,TOL,41.586806,-83.807833,10
1416,1416,Chicago Rockford International Airport ,Rockford,Estados Unidos,RFD,42.1953611,-89.0972222,10
1417,1417,Cherry Capital Airport,Atravessar cidade,Estados Unidos,TVC,44.741445,-85.582235,10
1418,1418,Ilulissat,Ilulissat,Groenlândia,JAV,69.23444,-51.05111,10
1419,1419,Daytona Beach Intl,Praia de Daytona,Estados Unidos,DAB,29.179917,-81.058056,10
1420,1420,Cold Bay,Baía Fria,Estados Unidos,CDB,55.206061,-162.725436,10
1421,1421,Corpus Christi Intl,Corpus Christi,Estados Unidos,CRP,27.770361,-97.501222,10
1422,1422,Craven Co Rgnl,Nova Berna,Estados Unidos,EWN,35.072972,-77.042944,10
1423,1423,Durango La Plata Co,Durango,Estados Unidos,DRO,37.151516,-107.75377,10
1424,1424,Kugluktuk,Mina de cobre,Canadá,YCO,67.816667,-115.143889,10
1425,1425,Melbourne Intl,Melbourne,Estados Unidos,MLB,28.102753,-80.645258,10
1426,1426,Niagara Falls Intl,Cataratas do Niágara,Estados Unidos,IAG,43.107333,-78.946194,10
1427,1427,Minot Intl,Minot,Estados Unidos,MOT,48.259378,-101.280333,10
1428,1428,Grand Forks Intl,Grand Forks,Estados Unidos,GFK,47.949256,-97.176111,10
1429,1429,Fort Smith Rgnl,Forte Smith,Estados Unidos,FSM,35.336583,-94.367444,10
1430,1430,Qingshan,Xichang,China,XIC,27.989083,102.184361,10
1431,1431,Pyongyang Intl,Pyongyang,Coréia,FNJ,39.224061,125.67015,10
1432,1432,Kalgoorlie Boulder,Kalgoorlie,Austrália,KGI,-30.789444,121.461667,10
1433,1433,Rockhampton,Rockhampton,Austrália,ROK,-23.381944,150.475278,10
1434,1434,Sunshine Coast,Maroochydore,Austrália,MCY,-26.603333,153.091111,10
1435,1435,Kuantan,Kuantan,Malásia,KUA,3.775389,103.209056,10
1436,1436,Sultan Abdul Halim,Alor Setar,Malásia,AOR,6.189667,100.398183,10
1437,1437,Sultan Iskandarmuda,Banda Achém,Indonésia,BTJ,5.523522,95.420372,10
1438,1438,Fatmawati Soekarno,Bengkulu,Indonésia,BKS,-3.8637,102.339036,10
1439,1439,Paro,Thimbu,Butão,PBH,27.403192,89.424606,10
1440,1440,Pakse,Pakxe,Laos,PKZ,15.132053,105.781417,10
1441,1441,Dehradun,Dehra Dun,Índia,DED,30.189689,78.180256,10
1442,1442,Osmany Intl,Sylhet Osmani,Bangladesh,ZYL,24.963242,91.866783,10
1443,1443,Vadodara,Baroda,Índia,BDQ,22.336164,73.226289,10
